     2.11           OBSERVATION DATA    M (MIXED)           RINEX VERSION / TYPE
teqc  2015Jun23                         20160105 07:42:16UTCPGM / RUN BY / DATE
Linux 2.4.21-27.ELsmp|Opteron|gcc -static|Linux x86_64|=+   COMMENT
teqc  2015Jun23                         20160101 22:02:18UTCCOMMENT
teqc  2015Jun23                         20160101 22:02:04UTCCOMMENT
teqc  2015Jun23     CNES                20160101 21:15:03UTCCOMMENT
teqc  2015Jun23                         20160101 21:15:02UTCCOMMENT
   2.035      (antenna height)                              COMMENT
 +60.24196666 (latitude)                                    COMMENT
 +24.38417464 (longitude)                                   COMMENT
0059.672      (elevation)                                   COMMENT
BIT 2 OF LLI FLAGS DATA COLLECTED UNDER A/S CONDITION       COMMENT
10503M002 (COGO code)                                       COMMENT
METG                                                        MARKER NAME
10503M002                                                   MARKER NUMBER
Automatic           CNES                                    OBSERVER / AGENCY
5134K77913          TRIMBLE NETR9       5.01                REC # / TYPE / VERS
5116354159          TRM59800.00     SCIS                    ANT # / TYPE
  2890652.4997  1310295.5475  5513958.8762                  APPROX POSITION XYZ
        2.0352        0.0020        0.0046                  ANTENNA: DELTA H/E/N
     1     1                                                WAVELENGTH FACT L1/2
    21    L1    P1    C1    L2    P2    D1    D2    S1    S2# / TYPES OF OBSERV
          L5    C5    D5    S5    L7    C7    D7    S7    L8# / TYPES OF OBSERV
          C8    D8    S8                                    # / TYPES OF OBSERV
    30.0000                                                 INTERVAL
    17                                                      LEAP SECONDS
 SNR is mapped to RINEX snr flag value [0-9]                COMMENT
  L1 & L2: min(max(int(snr_dBHz/6), 0), 9)                  COMMENT
Forced Modulo Decimation to 30 seconds                      COMMENT
  2016     1     1    21     0    0.0000000     GPS         TIME OF FIRST OBS
                                                            END OF HEADER
 16  1  1 21  0  0.0000000  0 22G25G32G24G17G02G15G28G12G06G22G14E14
                                E22E30E19S28S36G19G03S27S25S20
 124819213.453 7                  23752282.125    97261661.60944  23752289.547
      3547.367                          42.700          27.700    93209093.137 8
  23752291.313                          48.000


 129429387.294 5                  24629605.820
       893.570                          32.300



 107771002.426 8                  20508142.508    83977464.72447  20508148.977
      -833.043                          52.900          47.000    80478407.724 9
  20508150.480                          57.500


 117786863.448 8                  22414116.219    91782089.15046  22414120.184
     -2132.891                          48.100          39.200



 133778099.828 5                  25457135.984
      3308.359                          33.300



 131403532.901 6                  25005264.188   102392391.80143  25005267.805
     -3716.059                          40.400          22.900



 133368836.458 5                  25379264.828   103923863.83642  25379269.309
     -3223.687                          30.300          17.400



 108702420.679 8                  20685358.406    84703110.48047  20685362.402
      1909.195                          51.900          44.500



 124581740.472 6                  23707133.625    97076778.74544  23707140.465
      2967.746                          39.700          25.800    93031896.483 7
  23707142.434                          46.700


 131991193.064 6                  25117071.406   102850206.83543  25117073.969
     -2037.391                          39.300          22.800



 121317765.020 7                  23085992.344    94533300.85044  23085995.984
      1862.633                          42.600          29.400



  95410306.595 8                  18155975.328
     -3178.844                          51.500                    71248011.895 8
  18155988.727                          53.700    73106587.952 8  18155986.336
                        53.900    72177258.029 9  18155987.555
        58.100
 131097780.723 8                  24947080.711
      -783.066                          51.000                    97897726.814 8
  24947084.441                          50.200   100451569.923 8  24947082.332
                        50.900    99174651.975 9  24947083.625
        55.500
 138365423.760 7                  26330074.117
     -2803.922                          45.400                   103324931.906 7
  26330079.188                          46.100   106020351.289 7  26330076.609
                        45.100   104672630.205 8  26330077.891
        49.500
 141171543.254 6                  26864050.445
     -2172.078                          40.900                   105420312.498 6
  26864053.523                          40.100   108170400.288 6  26864051.551
                        38.900   106795363.497 7  26864052.262
        43.700
 215364831.964 6                  40982563.000
         3.105                          37.000                   160824337.212 7
  40982546.211                          44.000


 207963018.450 6                  39574052.516
        -3.613                          39.800                   155296934.374 6
  39574044.871                          39.800


 120932676.907 7                  23012680.703    94233104.57845  23012682.965
     -3096.195                          45.000          34.200



 134329563.186 5                  25562088.516
      2402.555                          35.700                   100311159.921 5
  25562096.254                          31.500


 209587990.190 5                  39883269.672
         3.266                          34.900                   156510504.752 6
  39883265.449                          39.900


 212137018.281 5                  40331939.922
         4.504                          35.200



 211632796.215 5                  40272362.922
        35.539                          33.700



 16  1  1 21  0 30.0000000  0 24G25G32G24G17G02G15G28G12G06G22G14E14
                                E22E30E19S28S36G01G19G03R03S27S25S20
 124712872.514 7                  23732047.211    97178798.56644  23732053.516
      3542.246        2760.220          43.600          27.400    93129682.744 7
  23732053.875        2645.218          46.600


 129402853.958 5                  24624555.070
       874.813                          32.500



 107796269.773 9                  20512950.891    83997153.56047  20512957.570
      -851.207        -663.077          54.100          46.900    80497276.196 9
  20512959.137        -635.456          57.400


 117851065.944 8                  22426333.273    91832117.06746  22426337.594
     -2147.102       -1672.894          48.100          39.200



 133678837.972 5                  25438247.141
      3309.141                          33.700



 131515034.600 7                  25026482.313   102479276.21344  25026486.664
     -3717.277       -2896.557          42.600          26.200



 133465563.599 4                  25397674.875   103999235.36742  25397676.113
     -3224.582       -2512.677          26.400          14.800



 108645363.774 8                  20674500.938    84658650.55947  20674504.645
      1894.695        1476.553          52.600          44.900



 124492865.660 6                  23690221.742    97007525.64044  23690228.113
      2957.242        2304.449          40.800          28.000    92965528.922 7
  23690230.023        2208.431          46.300


 132052499.100 6                  25128737.445   102897977.78043  25128740.477
     -2049.625       -1596.915          39.500          21.700



 121262143.124 7                  23075408.227    94489959.10344  23075411.441
      1845.684        1438.434          43.500          29.900



  95506282.188 8                  18174238.891
     -3219.371                          51.300                    71319681.983 8
  18174252.508       -2403.591          53.800    73180127.693 8  18174250.113
     -2466.297          53.900    72249862.945 9  18174251.281       -2434.946
        58.100
 131121494.042 8                  24951593.328
      -797.555                          50.800                    97915434.813 8
  24951596.949        -595.435          50.800   100469739.874 8  24951594.695
      -610.966          50.900    99192590.948 9  24951596.027        -603.197
        55.400
 138449600.592 7                  26346092.453
     -2807.789                          45.700                   103387791.235 7
  26346097.707       -2096.667          45.500   106084850.437 7  26346094.941
     -2151.366          44.700   104736309.444 8  26346096.398       -2124.015
        49.500
 141236863.811 6                  26876480.594
     -2182.465                          40.700                   105469090.843 6
  26876483.641       -1629.639          40.300   108220451.124 6  26876481.809
     -1672.149          38.600   106844778.087 7  26876482.625       -1650.895
        43.700
 215364743.528 6                  40982546.234
         2.848                          36.500                   160824270.736 7
  40982528.836           2.254          43.700


 207963122.959 6                  39574071.891
        -3.305                          40.000                   155296956.83016
  39574064.434          -2.020          37.500


 131555006.643 5                  25034069.031
     -2685.020                          33.900                    98239080.019 6
  25034073.973       -2004.727          38.000


 121025757.020 7                  23030393.539    94305634.53545  23030395.301
     -3109.125       -2422.442          44.700          34.000



 134257672.768 5                  25548407.430
      2390.195                          35.200                   100257475.740 5
  25548418.188        1784.986          35.000


 124797978.023 6  23313312.801    23313313.219    97065101.711 5  23313315.113
     -3897.869       -3031.680          39.400          34.700



 209587891.042 5                  39883250.234
         3.465                          35.400                   156510430.628 6
  39883246.152           2.534          40.500


 212136893.106 5                  40331544.219
         4.414                          34.700



 211631731.549 5                  40272180.266
        35.922                          34.300



 16  1  1 21  1  0.0000000  0 23G25G32G24G17G02G15G28G12G06G22G14E14
                                E22E30E19S28S36G01G19G03S27S25S20
 124606682.605 7                  23711839.992    97096053.19144  23711845.301
      3537.168        2756.281          44.400          27.800    93050385.107 8
  23711847.301        2641.430          48.700


 129376888.220 5                  24619612.586
       856.273                          32.400



 107822078.075 8                  20517861.961    84017263.92447  20517868.137
      -869.293        -677.100          53.900          47.100    80516548.628 9
  20517869.879        -648.893          57.200


 117915689.142 8                  22438630.961    91882472.80046  22438634.930
     -2161.129       -1683.782          48.100          39.200



 133579558.662 6                  25419354.828
      3309.730                          37.200



 131626567.559 7                  25047706.180   102566184.99744  25047710.777
     -3718.234       -2897.314          43.300          27.400



 133562312.977 5                  25416082.859   104074624.51642  25416086.867
     -3225.363       -2513.235          32.600          17.800



 108588739.495 8                  20663725.625    84614527.74547  20663729.516
      1880.234        1465.323          51.900          44.500



 124404309.356 6                  23673369.398    96938520.70544  23673376.566
      2946.492        2296.141          40.000          27.500    92899399.194 7
  23673378.531        2200.467          46.700


 132114167.075 6                  25140472.531   102946030.71443  25140474.813
     -2061.660       -1606.271          37.400          18.600



 121207023.024 7                  23064918.711    94447008.38744  23064922.629
      1829.121        1425.383          43.700          29.600



  95603466.844 8                  18192732.531
     -3259.613                          51.500                    71392254.939 9
  18192746.094       -2433.594          54.000    73254593.856 8  18192743.656
     -2497.079          53.700    72323382.504 9  18192744.773       -2465.334
        58.200
 131145636.686 8                  24956187.531
      -811.895                          51.400                    97933463.412 8
  24956190.906        -606.117          50.600   100488238.783 8  24956188.750
      -621.931          50.900    99210854.702 9  24956190.023        -614.021
        55.400
 138533890.538 7                  26362132.164
     -2811.582                          44.700                   103450735.034 7
  26362137.246       -2099.482          45.100   106149436.254 7  26362134.527
     -2154.254          44.400   104800074.252 8  26362136.059       -2126.872
        49.400
 141302489.756 6                  26888968.617
     -2192.598                          40.600                   105518097.225 6
  26888971.672       -1637.183          40.400   108270735.943 6  26888969.750
     -1679.892          38.900   106894423.692 7  26888970.883       -1658.537
        44.000
 215364655.394 6                  40982528.828
         2.832                          37.900                   160824204.609 7
  40982511.523           2.117          43.500


 207963221.594 6                  39574089.734
        -3.277                          40.500                   155297171.997 6
  39574084.152           -.601          38.000


 131635748.506 5                  25049432.438
     -2697.871                          35.200                    98299374.169 6
  25049442.156       -2014.582          37.600


 121119215.922 7                  23048178.703    94378459.64645  23048180.820
     -3121.574       -2432.228          46.300          33.800



 134186160.748 5                  25534800.305
      2377.398                          33.900                   100204073.923 6
  25534808.910        1775.510          37.400


 209587788.296 5                  39883230.594
         3.852                          35.200                   156510353.850 6
  39883225.691           2.789          40.400


 212136773.705 5                  40331132.938
         4.457                          35.000



 211630663.544 5                  40271979.000
        35.609                          34.000



 16  1  1 21  1 30.0000000  0 22G25G24G17G02G15G28G12G06G22G14E14E22
                                E30E19S28S36G01G19G03S27S25S20
 124500645.344 7                  23691661.461    97013426.75144  23691666.875
      3531.965        2752.287          44.000          26.200    92971201.457 7
  23691668.699        2637.606          47.300


 107848427.131 9                  20522875.984    84037795.65447  20522882.359
      -887.359        -691.171          54.400          47.500    80536224.868 9
  20522884.219        -662.376          57.300


 117980731.287 8                  22451007.969    91933154.99146  22451012.000
     -2175.172       -1694.642          48.100          39.200



 133480264.366 6                  25400459.859
      3310.055                          39.100



 131738129.294 7                  25068935.766   102653116.18444  25068941.023
     -3719.168       -2898.038          43.800          26.700



 133659084.235 5                  25434497.125   104150030.64543  25434501.313
     -3226.039       -2513.802          34.800          19.000



 108532548.911 8                  20653032.789    84570742.86647  20653036.664
      1865.816        1454.053          53.100          44.900



 124316074.744 6                  23656579.078    96869766.42344  23656585.945
      2935.719        2287.740          40.400          28.600    92833509.666 7
  23656587.676        2192.419          46.800


 132176194.849 5                  25152275.500   102994364.06943  25152278.012
     -2073.641       -1615.623          35.700          19.000



 121152407.130 7                  23054525.461    94404450.54444  23054529.020
      1812.094        1412.256          45.700          29.500



  95701853.574 8                  18211454.766
     -3299.566                          51.800                    71465725.556 8
  18211468.395       -2463.427          53.000    73329981.094 8  18211465.863
     -2527.687          53.800    72397811.430 9  18211467.156       -2495.554
        58.100
 131170207.971 8                  24960863.266
      -826.246                          50.900                    97951812.100 8
  24960866.836        -616.774          50.600   100507066.133 8  24960864.680
      -632.867          50.700    99229442.721 9  24960866.031        -624.823
        55.300
 138618293.066 7                  26378193.422
     -2815.398                          45.300                   103513762.916 7
  26378198.559       -2102.288          44.900   106214108.332 7  26378195.934
     -2157.124          44.900   104863924.233 8  26378197.535       -2129.704
        49.500
 141368419.581 6                  26901514.359
     -2202.762                          40.400                   105567330.511 6
  26901518.422       -1644.780          41.300   108321253.598 6  26901515.469
     -1687.686          39.000   106944299.166 7  26901517.152       -1666.233
        44.500
 215364566.673 6                  40982513.422
         2.574                          38.400                   160824138.318 7
  40982494.148           1.932          43.200


 207963322.743 6                  39574111.063
        -3.453                          39.600                   155297192.099 6
  39574103.840          -1.256          38.200


 131716887.820 5                  25064871.320   102636504.68342  25064882.207
     -2710.887       -2112.493          34.300          14.800    98359965.137 3
  25064876.492       -2024.450          22.000


 121213050.787 7                  23066034.547    94451577.72345  23066036.242
     -3134.105       -2441.961          45.600          33.900



 134115029.900 5                  25521264.492
      2364.602                          35.400                   100150956.719 6
  25521273.617        1765.967          38.300


 209587686.654 5                  39883211.781
         3.293                          34.800                   156510278.382 6
  39883207.934           2.548          40.200


 212136650.049 5                  40330733.547
         4.094                          34.800



 211629594.012 5                  40271760.609
        35.949                          34.000



 16  1  1 21  2  0.0000000  0 23G25G32G24G17G02G15G28G12G06G22G14E14
                                E22E30E19S28S36G01G19G03S27S25S20
 124394761.322 7                  23671512.102    96930919.69444  23671518.754
      3526.867        2748.279          44.200          27.200    92892132.204 7
  23671520.402        2633.779          47.600


 129326649.41515                  24610055.281
       817.789                          31.800



 107875315.799 9                  20527992.508    84058747.86947  20527999.520
      -905.254        -705.167          54.600          47.200    80556304.071 9
  20528001.203        -675.785          57.200


 118046189.441 8                  22463464.477    91984161.35146  22463468.328
     -2188.887       -1705.420          48.200          38.100



 133380956.764 6                  25381562.422   103933252.64742  25381562.293
      3310.496        2579.586          41.400          17.800



 131849716.985 7                  25090170.148   102740067.57143  25090175.223
     -3719.953       -2898.692          42.200          22.600



 133755875.768 6                  25452916.914   104225452.62943  25452920.645
     -3226.789       -2514.327          37.600          19.300



 108476792.255 8                  20642422.938    84527296.12947  20642426.051
      1851.238        1442.762          52.400          44.700



 124228163.944 6                  23639850.523    96801264.50144  23639857.402
      2924.961        2279.321          40.800          27.000    92767861.978 7
  23639859.313        2184.348          47.200


 132238579.078 6                  25164146.789   103042975.19343  25164149.047
     -2085.496       -1624.836          37.600          20.400



 121098296.391 7                  23044229.289    94362286.32544  23044231.832
      1795.168        1399.115          43.400          29.800



  95801434.497 8                  18230404.445
     -3339.207                          51.500                    71540087.934 8
  18230418.020       -2493.060          53.700    73406283.364 8  18230415.582
     -2558.099          53.300    72473143.757 9  18230416.887       -2525.579
        58.400
 131195206.285 8                  24965620.070
      -840.340                          51.000                    97970479.671 8
  24965623.887        -627.386          50.500   100526220.682 8  24965621.637
      -643.753          51.000    99248353.783 9  24965622.930        -635.570
        55.400
 138702806.652 7                  26394276.102
     -2818.945                          45.100                   103576873.723 7
  26394280.621       -2105.037          44.900   106278865.514 7  26394278.273
     -2159.949          45.100   104927858.221 8  26394279.762       -2132.484
        49.100
 141434650.573 6                  26914118.117
     -2212.793                          40.400                   105616788.712 6
  26914122.086       -1652.228          41.600   108372002.022 6  26914119.039
     -1695.332          39.300   106994402.473 7  26914120.512       -1673.781
        44.900
 215364478.210 6                  40982495.500
         3.273                          36.900                   160824072.259 7
  40982478.453           2.340          42.600


 207963426.237 6                  39574130.984
        -3.312                          39.500                   155297213.47316
  39574124.324           1.300          38.700


 131798420.872 6                  25080387.781   102700037.05942  25080395.832
     -2724.434       -2122.744          37.100          13.900    98420850.037 5
  25080403.422       -2034.285          35.000


 121307258.213 7                  23083962.000    94524986.09845  23083964.246
     -3146.527       -2451.604          45.100          33.300



 134044281.773 5                  25507801.750
      2351.941                          35.300                   100098125.379 6
  25507810.277        1756.424          39.000


 209587584.360 5                  39883191.516
         3.289                          35.400                   156510201.617 6
  39883187.316           2.637          40.600


 212136522.972 5                  40330315.594
         3.938                          34.600



 211628522.105 5                  40271560.813
        35.891                          34.600



 16  1  1 21  2 30.0000000  0 22G25G24G17G02G15G28G12G06G22G14E14E22
                                E30E19S28S36G01G19G03S27S25S20
 124289032.660 7                  23651392.836    96848533.70844  23651398.625
      3521.594        2744.207          44.000          27.000    92813178.981 7
  23651399.453        2629.863          46.000


 107902744.013 9                  20533211.969    84080120.50147  20533218.891
      -923.289        -719.205          54.200          47.300    80576786.179 9
  20533220.512        -689.237          57.200


 118112062.193 8                  22475999.336    92035490.76546  22476003.305
     -2202.629       -1716.182          48.100          38.600



 133281638.835 6                  25362662.359   103855862.14043  25362663.863
      3310.695        2579.787          40.600          19.000



 131961328.141 6                  25111409.203   102827037.26843  25111413.984
     -3720.898       -2899.303          37.900          19.000



 133852686.763 6                  25471338.984   104300889.73743  25471342.766
     -3227.414       -2514.854          38.700          19.600



 108421471.315 8                  20631895.406    84484188.89747  20631899.926
      1836.730        1431.406          51.000          44.800



 124140580.617 6                  23623184.039    96733017.73544  23623191.109
      2913.996        2270.740          40.500          28.600    92702458.827 8
  23623193.137        2176.123          48.100


 132301318.286 6                  25176085.742   103091862.84843  25176087.113
     -2097.293       -1634.047          36.200          19.900



 121044693.473 7                  23034028.750    94320517.82545  23034032.117
      1778.293        1385.879          43.200          30.200



  95902202.908 8                  18249580.047
     -3378.680                          51.300                    71615337.074 9
  18249593.633       -2522.549          54.000    73483495.526 8  18249591.102
     -2588.357          53.100    72549374.408 9  18249592.465       -2555.453
        58.600
 131220631.448 8                  24970458.367
      -854.687                          50.000                    97989466.001 8
  24970462.156        -638.039          50.500   100545702.300 8  24970459.859
      -654.681          51.300    99267587.757 9  24970461.215        -646.361
        55.400
 138787431.313 7                  26410379.672
     -2822.703                          44.700                   103640067.490 7
  26410383.992       -2107.821          44.100   106343707.808 7  26410381.742
     -2162.811          45.100   104991876.254 8  26410383.254       -2135.314
        49.100
 141501181.632 6                  26926778.711
     -2222.781                          40.800                   105666470.997 6
  26926783.121       -1659.682          41.600   108422980.369 6  26926779.418
     -1702.983          40.000   107044732.789 7  26926781.191       -1681.333
        45.100
 215364388.145 6                  40982478.422
         2.816                          38.200                   160824005.653 7
  40982461.188           1.897          43.100


 207963534.320 6                  39574150.156
        -3.590                          40.900                   155297435.45316
  39574143.402           -.141          37.600


 131880345.958 6                  25095977.641
     -2737.414                          37.700                    98482027.713 5
  25095989.762       -2043.993          33.000


 121401835.655 7                  23101958.922    94598682.81145  23101961.352
     -3158.777       -2461.210          46.300          33.100



 133973919.773 6                  25494411.164
      2338.934                          37.100                   100045582.329 6
  25494420.590        1746.747          40.800


 209587479.653 5                  39883172.344
         3.418                          35.300                   156510123.593 6
  39883168.285           2.499          39.700


 212136406.345 5                  40329915.359
         3.676                          35.500



 211627445.282 5                  40271365.109
        35.496                          33.400



 16  1  1 21  3  0.0000000  0 23G25G32G24G17G02G15G28G12G06G22G14E14
                                E22E30E19S28S36G01G19G03S27S25S20
 124183460.445 7                  23631303.141    96766269.67444  23631308.965
      3516.355        2740.123          44.000          26.000    92734342.607 7
  23631310.848        2625.957          47.000


 129278689.20915                  24600932.367
       779.445                          30.300



 107930710.783 9                  20538533.750    84101912.78747  20538540.645
      -941.223        -733.175          54.200          46.700    80597670.458 9
  20538542.152        -702.629          57.300


 118178347.228 7                  22488613.102    92087141.43946  22488616.859
     -2216.398       -1726.876          47.600          38.400



 133182313.077 6                  25343761.547   103778465.45543  25343762.133
      3310.895        2579.930          39.500          20.900



 132072960.358 6                  25132651.047   102914023.33543  25132656.848
     -3721.273       -2899.745          37.100          18.300



 133949516.137 6                  25489764.930   104376341.21742  25489768.922
     -3227.926       -2515.318          37.900          17.400



 108366586.581 8                  20621451.813    84441421.57447  20621455.523
      1822.156        1420.081          52.400          44.900



 124053327.335 6                  23606580.203    96665028.15944  23606586.855
      2902.824        2262.131          41.000          27.600    92637302.147 8
  23606589.055        2167.880          48.000


 132364409.400 5                  25188091.922   103141024.76743  25188093.051
     -2109.031       -1643.176          35.500          19.000



 120991599.916 7                  23023925.258    94279146.21545  23023928.746
      1761.219        1372.622          45.700          30.900



  96004151.255 8                  18268980.336
     -3418.000                          51.800                    71691467.337 8
  18268993.750       -2551.829          53.800    73561611.795 8  18268991.402
     -2618.397          52.900    72626497.671 9  18268992.535       -2585.113
        58.300
 131246482.271 8                  24975377.664
      -868.883                          50.700                    98008770.183 8
  24975381.449        -648.599          50.800   100565510.072 8  24975379.059
      -665.521          51.000    99287143.735 9  24975380.523        -657.061
        55.300
 138872165.988 7                  26426503.617
     -2826.375                          45.000                   103703343.411 7
  26426508.395       -2110.542          44.000   106408634.400 7  26426506.473
     -2165.600          44.200   105055977.516 8  26426507.828       -2138.074
        48.800
 141568010.720 6                  26939496.086
     -2232.797                          41.500                   105716375.827 6
  26939499.230       -1667.106          41.500   108474187.070 6  26939496.887
     -1710.600          40.800   107095288.558 7  26939498.246       -1688.856
        45.000
 215364298.695 6                  40982461.391
         2.895                          36.700                   160823938.666 7
  40982443.289           2.310          43.800


 207963639.453 6                  39574168.859
        -3.414                          40.700                   155297458.461 6
  39574162.105          -1.074          38.800


 131962659.803 6                  25111641.617
     -2750.379                          40.700                    98543495.713 5
  25111644.395       -2053.598          32.800


 121496779.910 7                  23120026.148    94672665.34945  23120028.590
     -3171.043       -2470.701          46.300          33.500



 133903945.925 6                  25481096.227   104340855.65842  25481102.723
      2325.793        1812.590          36.900          17.400    99993329.109 6
  25481104.375        1737.045          40.900


 209587375.551 5                  39883151.875
         3.426                          35.100                   156510046.034 6
  39883147.559           2.621          39.700


 212136308.872 5                  40329500.219
         3.172                          35.000



 211626364.945 5                  40271147.656
        35.805                          34.700



 16  1  1 21  3 30.0000000  0 22G25G24G17G02G15G28G12G06G22G14E14E22
                                E30E19S28S36G01G19G03S27S25S20
 124078046.475 7                  23611243.063    96684128.90344  23611249.309
      3511.098        2736.011          42.800          26.100    92655624.378 7
  23611250.664        2622.006          46.300


 107959216.194 9                  20543958.266    84124124.79947  20543965.078
      -959.172        -747.176          54.600          47.000    80618956.961 9
  20543966.762        -716.037          57.500


 118245042.557 8                  22501304.938    92139111.82646  22501308.711
     -2229.980       -1737.481          48.200          38.500



 133082981.556 6                  25324858.734   103701064.29343  25324860.422
      3311.090        2580.079          37.900          21.100



 132184611.046 6                  25153897.602   103001023.78443  25153902.414
     -3722.051       -2900.225          38.600          19.300



 134046363.613 6                  25508194.820   104451806.79542  25508198.152
     -3228.742       -2515.764          37.700          14.800



 108312139.521 8                  20611090.625    84398995.29347  20611094.574
      1807.527        1408.687          53.200          44.600



 123966407.479 6                  23590039.547    96597298.38044  23590046.605
      2891.727        2253.437          41.200          28.400    92572394.451 8
  23590048.746        2159.537          48.400


 132427850.528 5                  25200163.180   103190459.34242  25200163.652
     -2120.625       -1652.225          32.600          14.800



 120939017.534 7                  23013918.898    94238172.93244  23013922.609
      1744.238        1359.337          45.000          29.800



  96107272.628 8                  18288603.617
     -3456.891                          51.300                    71768473.557 8
  18288617.051       -2580.940          53.900    73640626.874 8  18288614.660
     -2648.271          53.500    72704508.323 9  18288615.879       -2614.604
        58.200
 131272758.237 8                  24980377.781
      -882.930                          50.300                    98028391.852 8
  24980381.578        -659.171          50.100   100585643.609 8  24980379.094
      -676.366          50.900    99307021.335 9  24980380.578        -667.766
        55.300
 138957010.346 7                  26442649.313
     -2830.023                          44.200                   103766701.237 7
  26442653.988       -2113.259          44.700   106473645.031 7  26442651.832
     -2168.383          44.100   105120161.738 8  26442653.184       -2140.813
        48.800
 141635136.299 6                  26952269.836
     -2242.582                          41.700                   105766502.080 6
  26952273.004       -1674.466          40.900   108525620.953 6  26952270.473
     -1718.145          40.200   107146068.622 7  26952271.703       -1696.304
        44.900
 215364209.701 6                  40982446.297
         2.828                          36.800                   160823872.462 7
  40982427.070           2.042          43.300


 207963735.873 6                  39574189.000
        -3.402                          40.000                   155297473.765 6
  39574182.410          -1.089          37.600


 132045360.009 6                  25127377.797
     -2763.109                          39.800                    98605252.295 6
  25127387.668       -2063.194          39.800


 121592088.475 7                  23138163.047    94746931.76145  23138165.180
     -3182.949       -2480.098          46.400          33.400



 133834363.260 6                  25467854.984   104286635.51242  25467861.629
      2312.930        1802.377          36.800          16.900    99941368.158 6
  25467863.402        1727.279          41.700


 209587269.974 5                  39883132.250
         3.523                          34.300                   156509966.425 6
  39883128.215           2.752          40.400


 212136199.365 5                  40329084.094
         3.531                          35.000



 211625282.156 5                  40270944.891
        35.863                          35.400



 16  1  1 21  4  0.0000000  0 23G25G32G24G17G02G15G28G12G06G22G14E14
                                E22E30E19S28S36G01G19G03S27S25S20
 123972792.309 6                  23591213.492    96602112.68644  23591219.859
      3505.711        2731.863          41.700          25.900    92577025.500 7
  23591221.566        2618.031          46.500


 129232985.34015                  24592243.461
       742.461                          33.800



 107988260.147 8                  20549485.258    84146756.44747  20549491.840
      -977.211        -761.119          53.800          47.000    80640645.634 9
  20549493.465        -729.412          57.100


 118312146.339 8                  22514074.258    92191400.48746  22514077.875
     -2243.664       -1748.060          48.300          39.000



 132983646.778 5                  25305959.039   103623660.58743  25305956.922
      3310.988        2580.107          33.700          18.300



 132296277.665 6                  25175148.313   103088036.69243  25175152.059
     -3722.578       -2900.611          39.400          18.600



 134143228.171 6                  25526627.086   104527285.68142  25526631.227
     -3229.094       -2516.115          36.300          12.600



 108258131.240 8                  20600813.117    84356910.91747  20600816.938
      1792.809        1397.308          53.200          44.900



 123879824.018 6                  23573563.805    96529830.73644  23573570.637
      2880.340        2244.673          40.500          28.100    92507737.942 8
  23573572.723        2151.151          48.800


 132491639.365 5                  25212302.172   103240164.88942  25212303.023
     -2132.328       -1661.257          34.600          14.800



 120886948.396 7                  23004010.422    94197599.58845  23004014.609
      1726.945        1345.981          45.200          31.000



  96211559.751 8                  18308448.844
     -3495.715                          51.100                    71846350.308 8
  18308461.945       -2609.859          53.100    73720535.186 8  18308459.695
     -2677.936          53.300    72783400.856 9  18308460.910       -2643.901
        58.100
 131299458.624 8                  24985458.602
      -897.238                          50.200                    98048330.451 8
  24985462.285        -669.720          50.500   100606102.343 8  24985459.941
      -687.189          51.100    99327220.004 9  24985461.289        -678.454
        55.300
 139041963.779 7                  26458815.094
     -2833.652                          43.300                   103830140.489 7
  26458819.898       -2115.922          43.600   106538739.222 7  26458817.930
     -2171.120          44.700   105184428.463 8  26458819.121       -2143.521
        48.600
 141702556.719 6                  26965099.531
     -2252.262                          41.600                   105816848.499 6
  26965103.270       -1681.731          41.600   108577280.745 6  26965100.551
     -1725.597          39.900   107197071.731 7  26965101.434       -1703.667
        45.100
 215364120.716 6                  40982429.313
         2.633                          37.000                   160823805.383 7
  40982410.320           2.123          43.700


 207963834.334 6                  39574208.813
        -3.324                          39.900                   155297489.322 6
  39574201.309           -.416          37.500


 132128444.041 6                  25143189.219   102957189.48842  25143197.469
     -2775.941       -2162.793          40.900          17.800    98667295.528 6
  25143196.910       -2072.678          41.700


 121687758.711 7                  23156368.672    94821479.99745  23156370.727
     -3195.195       -2489.451          44.500          33.600



 133765174.465 6                  25454688.711   104232722.27742  25454695.211
      2299.430        1792.107          37.900          16.300    99889701.325 7
  25454697.512        1717.451          42.000


 209587163.366 5                  39883111.531
         3.297                          35.100                   156509887.398 6
  39883107.238           2.586          39.800


 212136093.341 5                  40328682.859
         3.395                          34.500



 211624195.306 5                  40270738.594
        36.289                          34.200



 16  1  1 21  4 30.0000000  0 22G25G32G24G17G15G28G12G06G22G14E14E22
                                E30E19S28S36G01G19G03S27S25S20
 123867699.036 6                  23571214.086    96520221.81844  23571221.715
      3500.355        2727.660          40.600          25.600    92498546.730 7
  23571223.188        2614.001          46.700


 129211013.754 5                  24588063.688
       722.910                          33.700



 108017841.189 9                  20555114.391    84169806.61047  20555121.055
      -995.000        -775.068          55.100          47.200    80662735.372 9
  20555122.621        -742.776          57.100


 118379656.485 8                  22526921.133    92244005.79846  22526924.766
     -2257.082       -1758.589          48.700          38.300



 132407957.645 6                  25196400.125   103175059.93042  25196404.547
     -3722.793       -2900.876          37.600          15.600



 134240108.631 5                  25545063.039
     -3229.539                          31.800



 108204562.676 8                  20590619.148    84315169.17947  20590623.070
      1778.223        1385.869          51.800          44.900



 123793579.595 6                  23557151.180    96462627.28844  23557158.691
      2869.121        2235.850          40.200          27.200    92443334.634 8
  23557160.891        2142.686          48.100


 132555772.992 5                  25224506.695   103290139.13652  25224506.984
     -2143.477       -1670.037          33.100          14.800



 120835394.052 7                  22994200.094    94157427.36845  22994204.637
      1709.922        1332.601          43.200          30.900



  96317004.808 8                  18328514.117
     -3534.074                          51.300                    71925091.745 8
  18328527.613       -2638.580          53.200    73801330.753 8  18328525.316
     -2707.414          53.400    72863169.355 9  18328526.465       -2672.994
        58.400
 131326582.109 8                  24990619.984
      -911.223                          50.700                    98068585.002 8
  24990623.816        -680.241          50.600   100626885.277 8  24990621.566
      -697.987          50.900    99347738.746 9  24990622.793        -689.111
        55.200
 139127025.237 7                  26475001.391
     -2837.141                          42.700                   103893660.409 7
  26475006.938       -2118.615          43.500   106603916.185 7  26475004.496
     -2173.887          43.900   105248776.902 8  26475005.879       -2146.250
        48.600
 141770269.831 7                  26977984.758
     -2261.879                          42.300                   105867413.480 6
  26977988.520       -1689.006          41.600   108629164.831 6  26977986.172
     -1733.072          40.700   107248296.265 7  26977986.730       -1711.039
        45.200
 215364031.471 6                  40982410.875
         2.988                          37.400                   160823738.959 7
  40982392.188           2.230          43.600


 207963937.245 6                  39574227.438
        -3.875                          41.000                   155297704.698 6
  39574221.879           -.900          38.000


 132211908.736 6                  25159072.266   103022226.79042  25159080.453
     -2788.461       -2172.699          39.000          15.600    98729623.030 7
  25159079.773       -2082.152          43.200


 121783787.001 7                  23174642.289    94896307.22945  23174644.309
     -3206.773       -2498.702          45.600          33.500



 133696381.549 5                  25441596.742   104179117.35242  25441604.742
      2286.301        1781.826          34.300          15.600    99838329.954 6
  25441607.102        1707.576          40.600


 209587056.902 6                  39883089.281
         3.570                          36.100                   156509807.747 6
  39883087.664           2.763          40.300


 212135986.549 5                  40328272.750
         3.414                          34.600



 211623109.167 5                  40270514.141
        36.172                          34.600



 16  1  1 21  5  0.0000000  0 22G25G32G24G17G02G15G28G12G06G22G14E14
                                E22E30E19S28S36G01G19G03S27S20
 123762768.306 6                  23551246.977    96438457.60844  23551254.719
      3494.984        2723.444          41.700          25.900    92420189.388 7
  23551255.371        2609.963          46.100


 129189616.380 5                  24583990.094
       703.563                          35.300



 108047959.470 8                  20560845.438    84193275.40047  20560852.270
     -1012.863        -789.007          53.900          46.700    80685226.295 9
  20560853.836        -756.131          57.000


 118447570.812 7                  22539844.898    92296926.04946  22539848.191
     -2270.496       -1769.054          47.900          38.600



 132784973.005 5                  25268149.672   103468855.50243  25268151.906
      3311.219        2580.055          34.900          19.900



 132519648.745 6                  25217653.813   103262091.93542  25217658.945
     -3723.062       -2901.117          38.600          14.800



 134337004.508 5                  25563501.781
     -3229.906                          35.100



 108151434.563 8                  20580509.281    84273770.64747  20580513.176
      1763.590        1374.427          52.500          45.200



 123707677.375 6                  23540804.742    96395690.49844  23540811.895
      2857.750        2226.922          39.900          27.100    92379186.876 8
  23540814.215        2134.128          48.800


 132620249.59914                  25236776.461
     -2154.734                          29.100



 120784356.414 7                  22984487.656    94117657.79244  22984491.516
      1692.668        1319.154          42.300          29.800



  96423600.636 8                  18348798.719
     -3572.250                          51.200                    72004692.530 8
  18348812.105       -2667.125          53.700    73883008.076 8  18348809.809
     -2736.704          53.400    72943808.411 9  18348811.125       -2701.915
        58.300
 131354128.109 8                  24995861.883
      -925.266                          50.900                    98089155.069 8
  24995865.652        -690.734          50.600   100647991.953 8  24995863.402
      -708.751          50.800    99368577.114 9  24995864.668        -699.743
        55.300
 139212194.346 7                  26491208.664
     -2840.789                          42.500                   103957260.701 7
  26491214.141       -2121.299          43.900   106669175.622 7  26491211.375
     -2176.637          44.000   105313206.769 8  26491213.031       -2148.966
        48.600
 141838274.039 6                  26990925.109
     -2271.711                          41.300                   105918195.873 6
  26990929.398       -1696.238          41.800   108681271.965 6  26990926.535
     -1740.483          40.300   107299741.021 7  26990927.492       -1718.354
        45.300
 215363941.424 6                  40982393.766
         2.824                          37.000                   160823671.712 7
  40982375.547           2.168          43.600


 207964048.700 6                  39574247.766
        -3.336                          39.900                   155297729.594 6
  39574241.574           -.568          38.600


 132295751.693 6                  25175027.695   103087558.88042  25175034.320
     -2801.086       -2182.447          38.600          16.300    98792232.916 6
  25175034.055       -2091.526          41.300


 121880170.876 7                  23192983.695    94971411.54445  23192985.742
     -3218.738       -2507.922          44.200          33.400



 133627987.122 5                  25428582.805   104125823.10242  25428588.938
      2273.188        1771.409          34.100          14.800    99787256.222 6
  25428591.004        1697.636          40.200


 209586948.509 5                  39883072.109
         3.840                          35.700                   156509726.986 6
  39883065.871           2.715          40.100


 211622019.226 5                  40270322.219
        36.027                          35.200



 16  1  1 21  5 30.0000000  0 22G25G32G24G17G02G15G28G12G06G14E14E22
                                E30E19S28S36G01G19G03S27S25S20
 123658001.821 7                  23531311.008    96356821.43544  23531318.781
      3489.559        2719.137          42.600          26.500    92341954.692 7
  23531320.254        2605.837          47.200


 129168793.984 5                  24580026.813   100651129.87042  24580032.598
       685.012         533.691          31.600          16.300



 108078614.495 9                  20566679.094    84217162.43247  20566686.074
     -1030.758        -802.969          54.400          47.000    80708118.039 9
  20566687.637        -769.511          57.100


 118515887.098 7                  22552844.875    92350159.51446  22552848.844
     -2283.918       -1779.464          47.100          38.100



 132685643.736 6                  25249249.406   103391456.10343  25249250.465
      3310.730        2579.922          41.300          22.000



 132631348.432 6                  25238910.875   103349130.80643  25238914.820
     -3723.430       -2901.395          41.800          18.300



 134433915.55315                  25581945.672
     -3230.441                          31.800



 108098748.332 8                  20570483.586    84232716.44247  20570487.406
      1748.844        1362.916          53.400          45.000



 123622120.523 6                  23524524.242    96329022.81844  23524531.012
      2846.098        2217.896          40.200          26.300    92315297.019 8
  23524533.215        2125.483          48.200


 120733837.549 7                  22974874.305    94078292.43744  22974878.121
      1675.285        1305.663          42.200          29.600



  96531339.984 8                  18369300.867
     -3610.230                          51.000                    72085147.239 8
  18369314.207       -2695.521          53.400    73965561.600 8  18369312.004
     -2765.833          53.200    73025312.526 9  18369313.195       -2730.677
        57.900
 131382095.903 8                  25001184.000
      -939.215                          50.400                    98110040.111 8
  25001187.789        -701.233          50.100   100669421.823 8  25001185.352
      -719.526          51.100    99389734.574 9  25001186.754        -710.379
        55.300
 139297470.535 7                  26507436.250
     -2844.293                          42.400                   104020940.962 7
  26507441.391       -2123.945          43.800   106734517.106 7  26507438.813
     -2179.350          44.600   105377717.639 8  26507440.551       -2151.645
        48.600
 141906567.780 6                  27003920.930
     -2281.414                          40.500                   105969194.431 6
  27003924.656       -1703.413          40.200   108733600.919 6  27003922.031
     -1747.858          39.700   107351404.776 7  27003923.297       -1725.635
        44.700
 215363852.078 6                  40982377.281
         2.863                          36.900                   160823605.341 7
  40982357.938           2.069          43.300


 207964150.334 6                  39574266.656
        -3.367                          40.800                   155297746.204 6
  39574260.582           -.528          37.800


 132379970.360 5                  25191053.547   103153183.79342  25191061.176
     -2813.375       -2192.157          35.500          15.600    98855123.467 7
  25191062.199       -2100.826          42.600


 121976907.946 7                  23211391.398    95046791.08545  23211393.688
     -3230.395       -2517.070          44.200          33.400



 133559994.540 6                  25415645.094   104072841.88642  25415650.727
      2259.660        1760.979          37.600          16.300    99736482.670 6
  25415652.559        1687.587          40.600


 209586839.861 5                  39883050.984
         3.742                          34.500                   156509646.241 6
  39883046.598           2.598          40.300


 211924379.298 5                  40327445.656
         3.250                          34.600



 211620927.243 5                  40270109.797
        36.461                          35.000



 16  1  1 21  6  0.0000000  0 23G25G32G24G17G02G15G28G12G06G14E14E22
                                E30E19S28S36G01R13G19G03S27S25S20
 123553400.827 7                  23511406.250    96275314.15844  23511414.172
      3483.922        2714.824          42.800          28.500    92263843.552 7
  23511415.234        2601.700          47.300


 129148547.541 6                  24576174.398   100635353.32742  24576179.973
       665.277         518.667          36.200          17.800



 108109805.593 9                  20572614.406    84241467.18447  20572621.367
     -1048.449        -816.856          54.500          46.800    80731410.090 9
  20572622.871        -782.825          56.900


 118584603.578 8                  22565920.852    92403704.82746  22565925.078
     -2297.086       -1789.832          48.800          38.700



 132586320.717 7                  25230348.164   103314061.60343  25230349.039
      3310.863        2579.737          43.600          20.600



 132743054.240 7                  25260166.984   103436174.24844  25260172.078
     -3723.426       -2901.484          44.600          25.600



 134530839.48814                  25600386.758
     -3231.082                          28.600



 108046504.753 9                  20560541.992    84192007.16447  20560546.188
      1734.176        1351.434          54.500          45.400



 123536911.676 6                  23508309.531    96262626.30344  23508316.477
      2834.621        2208.848          40.100          27.700    92251667.025 7
  23508318.797        2116.809          47.700


 120683838.713 7                  22965360.250    94039332.30445  22965363.441
      1658.098        1292.143          45.100          30.100



  96640215.024 8                  18390019.141
     -3647.898                          52.000                    72166450.034 8
  18390032.500       -2723.685          53.500    74048985.330 8  18390030.063
     -2794.733          53.700    73107675.791 9  18390031.375       -2759.211
        58.100
 131410484.374 8                  25006586.164
      -953.102                          50.200                    98131239.292 8
  25006589.848        -711.684          50.500   100691174.023 8  25006587.641
      -730.244          51.000    99411210.262 9  25006588.914        -720.962
        55.200
 139382852.978 7                  26523684.227
     -2847.621                          43.200                   104084700.588 7
  26523689.195       -2126.552          44.000   106799940.025 7  26523686.664
     -2182.030          44.300   105442308.912 8  26523688.324       -2154.289
        48.600
 141975148.947 6                  27016971.461
     -2290.621                          39.800                   106020407.626 6
  27016974.512       -1710.526          40.400   108786150.112 6  27016973.105
     -1755.137          40.300   107403285.974 7  27016973.793       -1732.830
        44.500
 215363761.868 6                  40982359.125
         2.992                          37.100                   160823538.269 7
  40982342.078           2.138          43.400


 207964250.045 6                  39574286.578
        -3.215                          40.600                   155297961.179 6
  39574279.473           -.997          37.400


 132464562.000 6                  25207150.461   103219099.29742  25207158.527
     -2825.855       -2201.821          36.000          17.400    98918292.576 6
  25207156.035       -2110.107          39.800


 104307530.103 7  19533451.625    19533452.781    81128082.685 8  19533456.016
      1676.730        1304.122          47.000          50.000



 122073994.893 7                  23229866.555    95122443.24545  23229869.012
     -3241.937       -2526.094          43.700          32.300



 133492405.166 5                  25402781.727   104020174.80342  25402788.793
      2246.352        1750.561          33.800          14.800    99686010.052 6
  25402792.500        1677.597          40.500


 209586730.823 5                  39883028.625
         4.113                          34.700                   156509564.477 6
  39883024.777           2.905          40.200


 211924287.661 5                  40327033.125
         3.152                          33.900



 211619832.819 5                  40269906.906
        36.754                          35.400



 16  1  1 21  6 30.0000000  0 21G25G32G24G17G02G15G12G06G14E14E22E30
                                E19S28S36G01G19G03S27S25S20
 123448966.689 7                  23491532.273    96193936.90644  23491539.734
      3478.262        2710.442          43.900          28.300    92185857.053 7
  23491540.621        2597.509          46.200


 129128877.417 6                  24572431.227   100620026.02542  24572436.605
       646.164         503.674          36.200          16.300



 108141531.912 8                  20578652.109    84266188.98647  20578659.059
     -1066.480        -830.787          53.900          46.700    80755101.818 9
  20578660.566        -796.175          57.300


 118653718.300 8                  22579073.586    92457560.45146  22579077.297
     -2310.422       -1800.162          48.300          39.000



 132487006.945 7                  25211449.625   103236674.22642  25211448.840
      3310.258        2579.449          44.300          14.800



 132854763.227 7                  25281425.313   103523220.14545  25281429.656
     -3723.625       -2901.549          45.300          30.000



 107994704.732 8                  20550684.641    84151643.50847  20550688.664
      1719.289        1339.880          51.400          45.200



 123452053.773 6                  23492161.211    96196503.23744  23492168.434
      2822.719        2199.668          40.200          27.200    92188299.095 8
  23492170.457        2108.013          48.800


 120634361.769 7                  22955944.492    94000778.84144  22955948.625
      1640.477        1278.543          42.900          29.900



  96750218.210 8                  18410951.984
     -3685.469                          51.700                    72248595.268 8
  18410965.551       -2751.692          53.100    74133273.493 8  18410963.066
     -2823.478          53.100    73190892.492 9  18410964.176       -2787.587
        58.100
 131439292.577 8                  25012068.094
      -967.234                          51.000                    98152751.912 8
  25012071.902        -722.139          50.500   100713247.842 8  25012069.559
      -740.975          51.000    99433003.481 9  25012070.910        -731.551
        55.300
 139468340.924 7                  26539952.063
     -2851.398                          43.900                   104148538.990 7
  26539957.191       -2129.232          44.100   106865443.782 7  26539954.426
     -2184.782          44.300   105506979.998 8  26539956.281       -2157.014
        48.800
 142044015.791 6                  27030076.617
     -2300.508                          39.500                   106071834.161 6
  27030080.496       -1717.655          40.600   108838918.213 6  27030078.152
     -1762.462          40.300   107455383.292 7  27030078.715       -1740.058
        44.700
 215363672.416 6                  40982343.219
         2.918                          37.800                   160823471.031 7
  40982324.508           2.268          43.400


 207964351.156 6                  39574307.016
        -3.320                          41.300                   155297978.383 6
  39574299.395          -1.095          37.200


 132549523.295 4                  25223315.570   103285302.88242  25223326.137
     -2838.621       -2211.479          29.400          15.600    98981737.613 6
  25223326.457       -2119.327          40.700


 122171428.767 7                  23248407.914    95198365.74945  23248409.941
     -3253.625       -2535.099          43.400          32.000



 133425222.193 5                  25389996.844   103967824.33642  25390005.109
      2232.512        1739.814          31.900          14.800    99635840.917 6
  25390007.527        1667.380          39.400


 209586620.225 5                  39883009.453
         3.500                          35.500                   156509482.028 6
  39883004.129           2.525          40.000


 211924190.187 5                  40326611.688
         3.137                          35.400



 211618732.314 5                  40269692.266
        36.914                          35.500



 16  1  1 21  7  0.0000000  0 23G25G32G24G17G02G15G12G06R23G22G14E14
                                E22E30E19S28S36G01G19G03S27S25S20
 123344700.930 7                  23471692.063    96112690.88344  23471698.785
      3472.828        2706.099          44.400          27.500    92107996.265 8
  23471701.605        2593.342          48.500


 129109784.737 5                  24568798.453   100605148.73742  24568803.434
       626.930         488.723          35.700          17.800



 108173793.207 9                  20584791.156    84291327.65947  20584797.879
     -1084.187        -844.651          54.200          47.400    80779193.042 9
  20584799.445        -809.452          56.900


 118723228.861 8                  22592300.594    92511724.53046  22592304.711
     -2323.520       -1810.388          48.600          38.700



 132387704.553 7                  25192552.961   103159321.23352  25192560.254
      3309.957                          42.600          17.400



 132966473.054 7                  25302682.414   103610266.73144  25302687.441
     -3723.672       -2901.546          44.000          29.000



 107943349.312 8                  20540911.953    84111626.30047  20540915.688
      1704.488        1328.341          53.800          45.300



 123367549.744 6                  23476080.641    96130655.90844  23476087.938
      2810.945        2190.470          40.100          28.100    92125195.398 8
  23476089.965        2099.193          48.200


 116778412.493 7  21830493.918    21830494.695    90827660.113 6  21830500.613
      4169.981        3243.324          46.000          36.900



 132881543.271 6                  25286498.039
     -2199.668                          36.000



 120585408.878 7                  22946629.875    93962633.74945  22946633.035
      1623.145        1264.927          45.100          30.600



  96861341.982 8                  18432098.273
     -3722.609                          51.900                    72331577.308 8
  18432111.781       -2779.468          53.300    74218420.276 8  18432108.922
     -2851.971          53.100    73274956.898 9  18432110.434       -2815.717
        58.100
 131468519.638 8                  25017629.867
      -981.133                          50.300                    98174577.312 8
  25017633.637        -732.532          50.500   100735642.603 8  25017631.340
      -751.641          50.300    99455113.562 9  25017632.715        -742.082
        55.100
 139553933.722 7                  26556239.977
     -2854.836                          43.600                   104212455.698 7
  26556245.063       -2131.794          44.700   106931027.880 7  26556242.484
     -2187.403          44.500   105571730.397 8  26556243.957       -2159.598
        48.800
 142113166.406 6                  27043234.961
     -2309.484                          38.500                   106123472.594 6
  27043239.027       -1724.630          40.200   108891903.721 6  27043236.871
     -1769.621          39.900   107507695.267 7  27043237.602       -1747.129
        44.500
 215363581.313 6                  40982324.219
         3.250                          38.400                   160823403.029 7
  40982306.563           2.525          43.900


 207964452.325 6                  39574325.297
        -3.301                          41.200                   155297995.66916
  39574318.566           -.598          38.000


 132634851.882 5                  25239557.211   103351792.47742  25239562.715
     -2850.180       -2220.841          35.500          15.600    99045456.810 6
  25239563.621       -2128.341          40.400


 122269206.582 7                  23267013.820    95274556.24145  23267016.004
     -3264.863       -2543.958          43.100          31.900



 133358447.581 5                  25377291.906
      2219.082                          30.700                    99585976.867 6
  25377300.070        1657.223          39.500


 209586510.113 5                  39882988.016
         3.730                          35.400                   156509399.560 6
  39882983.043           2.684          39.300


 211924087.875 5                  40326199.047
         3.977                          34.800



 211617628.416 5                  40269488.359
        37.156                          34.600



 16  1  1 21  7 30.0000000  0 23G25G32G24G17G02G15G12G06G22G14E14E22
                                E30E19S28S36G01G19R05G03S27S25S20
 123240605.184 7                  23451883.398    96031577.31944  23451890.879
      3466.992        2701.638          43.900          29.400    92030262.390 8
  23451892.352        2589.067          48.100


 129091270.049 5                  24565274.742   100590721.63142  24565279.852
       607.613         473.655          32.300          16.900



 108206588.808 8                  20591031.609    84316882.66947  20591038.133
     -1102.035        -858.521          53.900          46.800    80803683.264 9
  20591039.816        -822.745          56.900


 118793132.915 8                  22605603.617    92566195.22546  22605607.137
     -2336.668       -1820.583          48.800          39.000



 132288416.127 6                  25173658.531   103081953.66543  25173663.469
      3309.301        2578.701          38.800          19.600



 133078181.291 6                  25323940.203   103697312.04943  25323944.172
     -3723.680       -2901.465          37.300          22.500



 107892439.537 8                  20531224.344    84071956.34247  20531227.645
      1689.547        1316.728          50.800          45.700



 123283402.609 6                  23460067.938    96065086.69244  23460075.469
      2799.043        2181.171          39.800          27.900    92062358.223 8
  23460077.379        2090.280          48.000


 132947697.234 4                  25299083.273
     -2210.730                          28.000



 120536981.499 7                  22937414.141    93924898.11345  22937417.512
      1605.434        1251.229          43.100          30.800



  96973578.872 8                  18453456.102
     -3759.711                          51.800                    72415390.570 8
  18453469.672       -2807.105          53.800    74304419.979 8  18453466.906
     -2880.340          53.000    73359863.379 9  18453468.453       -2843.719
        57.800
 131498164.726 8                  25023271.063
      -995.184                          50.800                    98196714.875 8
  25023275.066        -742.936          50.400   100758357.668 8  25023272.535
      -762.318          51.000    99477539.879 9  25023273.914        -752.627
        55.300
 139639630.743 7                  26572547.531
     -2858.180                          44.000                   104276450.222 7
  26572552.488       -2134.388          44.800   106996691.833 7  26572550.051
     -2190.063          45.100   105636559.638 8  26572551.578       -2162.229
        49.000
 142182599.195 6                  27056447.984
     -2319.102                          39.100                   106175321.734 6
  27056451.480       -1731.679          39.900   108945105.459 6  27056449.418
     -1776.853          40.500   107560220.702 7  27056450.344       -1754.266
        44.300
 215363492.228 6                  40982308.313
         2.910                          39.600                   160823336.592 7
  40982290.047           2.115          44.200


 207964554.588 6                  39574344.063
        -3.473                          41.300                   155298015.13816
  39574338.082          -1.738          38.100


 132720545.105 5                  25255863.078   103418566.35342  25255870.297
     -2862.504       -2230.328          34.800          14.800    99109448.408 6
  25255868.625       -2137.396          38.700


 122367325.617 7                  23285686.047    95351012.63145  23285687.883
     -3276.230       -2552.795          42.400          32.300



 122762083.134 6  22965188.242    22965189.570    95481624.200 6  22965191.805
      2362.431        1837.423          39.200          38.800



 133292084.086 5                  25364662.969
      2205.270                          30.500                    99536419.634 7
  25364672.066        1646.901          42.800


 209586397.256 6                  39882964.250
         3.762                          36.000                   156509315.633 6
  39882962.301           2.895          40.400


 211923984.122 5                  40325781.922
         3.027                          35.700



 211616520.502 6                  40269275.813
        36.965                          36.400



 16  1  1 21  8  0.0000000  0 21G25G32G24G17G02G12G06G22G14E14E22E30
                                E19S28S36G01G19G03S27S25S20
 123136681.001 7                  23432107.055    95950597.45145  23432114.277
      3461.238        2697.165          44.900          30.000    91952656.693 7
  23432113.875        2584.784          46.800


 129073334.136 5                  24561861.500   100576745.67742  24561867.625
       588.227         458.585          33.600          15.600



 108239918.111 8                  20597374.195    84342853.55647  20597380.781
     -1119.848        -872.368          53.700          46.800    80828572.031 9
  20597382.465        -836.016          56.900


 118863428.028 8                  22618980.008    92620970.64246  22618983.852
     -2349.613       -1830.725          48.600          37.900



 132189144.104 4                  25154765.641   103004598.85142  25154771.895
      3309.242        2578.284          27.600          16.300



 107841976.844 8                  20521621.508    84032634.76647  20521625.559
      1674.688        1305.110          53.300          45.500



 123199615.500 6                  23444124.188    95999798.00444  23444131.594
      2786.938        2171.761          40.200          28.000    91999789.882 7
  23444133.617        2081.271          47.600


 133014179.442 5                  25311737.172
     -2221.383                          32.600



 120489081.472 7                  22928299.016    93887573.41545  22928303.121
      1587.875        1237.537          43.600          30.800



  97086921.289 8                  18475024.367
     -3796.383                          52.000                    72500029.388 8
  18475037.895       -2834.522          53.200    74391266.766 8  18475035.270
     -2908.469          52.900    73445606.190 9  18475036.777       -2871.499
        57.800
 131528227.044 8                  25028991.758
     -1008.945                          50.700                    98219164.010 8
  25028995.801        -753.310          50.900   100781392.435 8  25028993.223
      -772.965          50.500    99500281.826 9  25028994.637        -763.134
        55.200
 139725431.582 7                  26588874.844
     -2861.773                          44.400                   104340522.279 7
  26588879.836       -2136.987          44.600   107062435.330 7  26588877.211
     -2192.730          44.500   105701467.415 8  26588878.895       -2164.866
        49.000
 142252312.430 6                  27069713.961
     -2328.375                          40.200                   106227380.307 6
  27069717.793       -1738.646          39.800   108998522.075 6  27069715.215
     -1783.998          39.900   107612958.297 7  27069716.160       -1761.319
        44.100
 215363401.387 6                  40982291.672
         3.246                          37.800                   160823268.902 7
  40982273.453           2.185          43.700


 207964657.683 6                  39574364.516
        -3.234                          39.700                   155298237.925 6
  39574357.949           -.576          38.200


 132806600.288 5                  25272240.336   103485622.24242  25272246.609
     -2874.672       -2239.713          35.500          16.300    99173710.149 6
  25272245.523       -2146.376          37.900


 122465783.428 7                  23304421.602    95427732.99145  23304423.094
     -3287.461       -2561.550          42.600          31.300



 133226134.648 5                  25352114.883
      2191.563                          33.100                    99487171.695 7
  25352123.059        1636.604          42.600


 209586285.220 5                  39882943.063
         3.715                          35.700                   156509231.627 6
  39882939.965           2.776          39.900


 211923898.968 5                  40325368.422
         2.977                          35.700



 211615409.131 5                  40269064.844
        37.332                          35.400



 16  1  1 21  8 30.0000000  0 20G25G32G24G17G15G12G06G22G14E14E22E30
                                E19S28S36G01G19S27S25S20
 123032929.278 7                  23412363.813    95869751.95345  23412370.617
      3455.422        2692.666          44.300          30.200    91875179.760 8
  23412372.090        2580.478          48.000


 129055977.200 4                  24558556.555   100563220.89952  24558563.738
       568.379                          26.400          14.800



 108273779.898 9                  20603818.008    84369239.36347  20603824.688
     -1137.648        -886.217          54.100          46.700    80853858.435 9
  20603826.254        -849.297          56.900


 118934112.196 8                  22632430.617    92676049.21346  22632434.434
     -2362.582       -1840.835          49.100          38.600



 133301592.488 6                  25366451.688   103871399.21943  25366457.289
     -3723.043       -2901.143          40.200          19.900



 107791961.021 9                  20512103.688    83993661.39847  20512107.852
      1659.695        1293.504          54.000          45.200



 123116190.686 6                  23428248.477    95934791.62744  23428256.023
      2774.719        2162.296          40.800          29.300    91937492.110 7
  23428257.758        2072.198          47.300


 133080986.778 5                  25324451.117
     -2232.355                          31.900



 120441709.810 7                  22919284.602    93850660.44145  22919288.992
      1570.262        1223.791          45.300          30.800



  97201360.939 8                  18496801.445
     -3832.805                          51.400                    72585487.576 8
  18496815.152       -2861.743          53.200    74478954.293 8  18496812.523
     -2936.391          52.800    73532179.043 9  18496813.938       -2899.066
        57.700
 131558705.051 8                  25034791.914
     -1022.867                          50.700                    98241923.563 8
  25034795.508        -763.633          50.200   100804745.709 8  25034792.883
      -783.551          51.200    99523338.244 9  25034794.398        -773.594
        55.100
 139811334.814 7                  26605222.031
     -2865.137                          44.700                   104404670.790 7
  26605226.688       -2139.500          44.400   107128257.285 7  26605224.059
     -2195.319          44.500   105766452.645 8  26605225.715       -2167.406
        49.100
 142322303.632 6                  27083033.000
     -2337.648                          39.900                   106279646.462 6
  27083036.594       -1745.542          39.800   109052151.705 6  27083034.672
     -1791.077          39.700   107665906.189 7  27083035.320       -1768.313
        43.900
 215363310.236 6                  40982273.219
         2.750                          37.200                   160823200.721 7
  40982255.234           2.148          43.200


 207964760.209 6                  39574383.328
        -3.363                          40.900                   155298256.646 6
  39574376.973           -.594          37.300


 132893014.412 5                  25288682.758
     -2886.641                          31.200                    99238240.098 6
  25288690.918       -2155.337          36.700


 122564576.027 7                  23323220.773    95504714.24245  23323223.230
     -3298.648       -2570.221          42.000          31.600



 209586171.598 5                  39882922.375
         3.570                          35.700                   156509147.195 6
  39882919.184           2.705          40.400


 211923800.315 5                  40324948.313
         3.180                          34.200



 211614298.382 6                  40268858.203
        36.953                          36.200



 16  1  1 21  9  0.0000000  0 21G25G32G24G17G02G15G12G06G22G14E14E22
                                E30E19S28S36G01G19S27S25S20
 122929351.734 7                  23392653.633    95789042.18644  23392660.559
      3449.652        2688.129          44.800          28.200    91797832.899 8
  23392662.563        2576.125          48.700


 129039200.162 5                  24555365.586
       549.684                          30.700



 108308173.858 9                  20610362.961    84396039.84747  20610369.660
     -1155.402        -900.038          54.300          46.900    80879542.232 9
  20610371.227        -862.535          56.800


 119005184.506 8                  22645955.180    92731430.23146  22645959.258
     -2375.566       -1850.884          49.100          37.900



 131990655.911 6                  25116997.547   102849914.66843  25117000.465
      3307.371        2577.174          37.700          21.800



 133413280.839 6                  25387705.563   103958429.06942  25387709.855
     -3722.789       -2900.870          41.500          16.900



 107742393.277 9                  20502671.531    83955037.18047  20502675.230
      1644.715        1281.835          54.400          45.000



 123033131.346 6                  23412443.266    95870070.04244  23412450.277
      2762.469        2152.767          41.300          28.900    91875467.254 7
  23412452.480        2063.075          47.500


 133148117.347 4                  25337224.016
     -2243.352                          29.900



 120394868.693 7                  22910371.398    93814160.88145  22910374.605
      1552.457        1209.970          44.900          31.000



  97316890.480 8                  18518786.047
     -3869.059                          51.000                    72671759.635 8
  18518799.594       -2888.783          53.100    74567476.932 8  18518797.109
     -2964.146          52.800    73619576.389 9  18518798.410       -2926.463
        57.700
 131589598.103 8                  25040670.430
     -1036.738                          50.800                    98264993.051 8
  25040674.262        -773.975          49.800   100828417.009 8  25040671.824
      -794.163          50.900    99546708.637 9  25040673.164        -784.070
        55.100
 139897340.124 7                  26621588.195
     -2868.687                          45.300                   104468895.524 7
  26621592.848       -2142.053          44.400   107194157.455 7  26621590.504
     -2197.937          44.500   105831515.100 8  26621591.906       -2169.999
        49.000
 142392571.242 6                  27096404.797
     -2346.797                          39.800                   106332119.007 6
  27096406.367       -1752.402          37.500   109105993.096 6  27096404.773
     -1798.116          39.100   107719063.160 7  27096406.645       -1775.259
        42.800
 215363218.179 6                  40982257.000
         2.930                          38.300                   160823132.342 7
  40982238.453           2.289          43.600


 207964861.755 6                  39574401.047
        -3.453                          41.300                   155298276.653 6
  39574396.309          -1.160          38.100


 132979784.825 4                  25305195.430
     -2898.355                          29.600                    99303036.303 5
  25305200.188       -2164.168          34.200


 122663701.126 7                  23342084.047    95581954.58345  23342086.242
     -3309.703       -2578.851          43.000          31.500



 209586056.725 5                  39882899.656
         3.953                          35.900                   156509061.036 6
  39882897.051           3.085          40.300


 211923714.526 5                  40324535.031
         2.750                          34.000



 211613186.925 6                  40268652.172
        36.902                          36.300



 16  1  1 21  9 30.0000000  0 21G25G32G24G17G02G15G12G06G22G14E14E22
                                E30E19S28S36G01G19S27S25S20
 122825950.741 7                  23372977.539    95708469.97244  23372983.262
      3443.773        2683.530          43.600          28.600    91720617.879 8
  23372984.910        2571.720          48.700


 129023004.429 5                  24552282.250   100537522.85842  24552289.406
       530.137         413.423          31.300          14.800



 108343100.491 9                  20617008.977    84423255.40547  20617015.504
     -1173.070        -913.834          54.100          47.200    80905623.812 9
  20617017.129        -875.768          57.100


 119076642.977 7                  22659553.422    92787112.14646  22659557.180
     -2388.258       -1860.875          47.200          37.300



 131891448.269 6                  25098119.383   102772610.02943  25098121.602
      3306.570        2576.520          39.600          23.800



 133524958.502 7                  25408956.813   104045450.95642  25408960.926
     -3722.434       -2900.605          42.100          14.800



 107693276.267 8                  20493324.477    83916764.18647  20493328.289
      1629.762        1270.117          53.400          45.300



 122950441.248 6                  23396707.609    95805636.18344  23396714.805
      2750.160        2143.154          41.800          29.700    91813718.149 7
  23396716.828        2053.855          47.300


 133215569.340 5                  25350062.023
     -2253.691                          33.000



 120348560.427 7                  22901559.008    93778076.51445  22901562.605
      1534.820        1196.132          44.200          30.400



  97433502.922 8                  18540976.727
     -3905.031                          51.800                    72758840.357 8
  18540990.227       -2915.643          53.000    74656829.323 8  18540987.789
     -2991.707          52.700    73707792.949 9  18540989.109       -2953.677
        57.700
 131620906.019 8                  25046628.281
     -1050.445                          50.300                    98288372.342 8
  25046632.027        -784.273          50.300   100852406.196 8  25046629.543
      -804.725          50.200    99570392.875 9  25046630.918        -794.498
        55.100
 139983447.628 7                  26637974.156
     -2871.918                          45.000                   104533196.576 7
  26637978.926       -2144.584          44.400   107260135.919 7  26637976.254
     -2200.530          44.500   105896654.854 8  26637977.840       -2172.558
        49.100
 142463114.309 6                  27109828.789
     -2355.883                          41.400                   106384797.267 6
  27109832.262       -1759.236          38.000   109160045.558 6  27109829.824
     -1805.121          38.900   107772428.519 7  27109830.457       -1782.172
        43.000
 215363128.670 6                  40982240.719
         3.047                          38.000                   160823065.117 7
  40982220.930           2.164          43.400


 207964964.191 6                  39574423.438
        -3.297                          41.900                   155298494.50816
  39574416.074          -1.638          37.700


 133066911.471 5                  25321774.102
     -2909.746                          31.800                    99368105.904 5
  25321780.684       -2172.873          33.400


 122763156.946 7                  23361009.258    95659452.61845  23361011.480
     -3320.656       -2587.379          43.200          31.900



 209585941.320 6                  39882878.188
         3.852                          36.100                   156508974.879 6
  39882874.855           3.035          40.400


 211923633.967 5                  40324115.219
         3.008                          35.200



 211612074.170 6                  40268436.172
        37.332                          37.300



 16  1  1 21 10  0.0000000  0 21G25G32G24G17G02G15G12G06G22G14E14E22
                                E30E19S28S36G01G19S27S25S20
 122722726.651 7                  23353334.156    95628035.62044  23353341.430
      3437.957        2678.896          42.600          29.100    91643534.967 7
  23353341.906        2567.275          47.900


 129007389.624 5                  24549313.883   100525355.40043  24549319.023
       510.898         398.279          34.300          18.300



 108378557.312 8                  20623756.352    84450884.10147  20623763.301
     -1190.652        -927.631          53.900          47.000    80932101.307 9
  20623764.750        -888.981          56.700


 119148484.033 8                  22673223.836    92843092.19246  22673228.043
     -2400.988       -1870.807          48.200          37.700



 131792266.675 6                  25079244.977   102695325.75243  25079247.395
      3305.609        2575.788          39.200          22.900



 133636622.070 6                  25430206.141   104132461.45343  25430210.617
     -3721.773       -2900.136          40.800          19.600



 107644609.307 8                  20484063.734    83878841.87947  20484067.586
      1614.770        1258.413          53.300          45.800



 122868122.168 6                  23381043.531    95741491.42244  23381050.125
      2737.871        2133.469          41.300          29.600    91752246.082 7
  23381052.090        2044.573          47.300


 133283340.27915                  25362958.438
     -2264.293                          30.500



 120302785.885 7                  22892848.320    93742408.04345  22892851.781
      1516.973        1182.237          43.400          31.400



  97551189.409 8                  18563371.891
     -3940.652                          51.100                    72846723.124 8
  18563385.008       -2942.302          53.100    74747004.686 8  18563382.664
     -3019.060          52.500    73796822.016 9  18563383.980       -2980.687
        57.700
 131652626.825 8                  25052664.398
     -1064.180                          51.000                    98312059.953 8
  25052668.316        -794.553          50.600   100876711.750 8  25052666.066
      -815.282          51.200    99594389.458 9  25052667.328        -804.915
        55.100
 140069655.604 7                  26654378.508
     -2875.207                          44.400                   104597572.651 7
  26654383.613       -2147.079          45.000   107326191.368 7  26654381.031
     -2203.086          44.300   105961870.619 8  26654382.629       -2175.082
        49.000
 142533929.990 6                  27123304.219
     -2365.016                          41.500                   106437679.128 6
  27123308.605       -1766.019          38.700   109214306.929 6  27123305.602
     -1812.100          39.600   107826000.134 7  27123305.977       -1789.059
        43.100
 215363037.547 6                  40982221.844
         3.391                          38.300                   160822997.305 7
  40982203.555           2.481          43.500


 207965064.846 7                  39574441.266
        -3.352                          42.000                   155298514.84516
  39574434.652          -1.622          38.700


 133154386.528 5                  25338421.516
     -2921.594                          33.300                    99433428.094 6
  25338427.559       -2181.622          36.400


 122862939.579 7                  23379997.813    95737205.30945  23379999.789
     -3331.383       -2595.828          42.300          31.500



 209585825.425 5                  39882856.250
         3.859                          35.700                   156508888.138 6
  39882852.496           2.546          40.200


 211923566.187 5                  40323700.219
         2.410                          34.300



 211610957.525 6                  40268229.094
        37.367                          36.700



 16  1  1 21 10 30.0000000  0 20G25G32G24G17G02G15G12G06G14E14E22E30
                                E19S28S36G01G19S27S25S20
 122619681.663 7                  23333725.250    95547740.84244  23333732.055
      3431.789        2674.204          42.500          28.200    91566585.807 8
  23333733.293        2562.777          48.300


 128992357.004 4                  24546450.273   100513641.63842  24546457.227
       491.512         383.188          28.900          14.800



 108414544.947 9                  20630604.336    84478926.40747  20630611.316
     -1208.375        -941.406          54.900          47.000    80958975.189 9
  20630612.879        -902.186          56.700


 119220706.492 8                  22686967.359    92899369.42946  22686971.715
     -2413.723       -1880.706          48.000          37.900



 131693113.767 6                  25060377.195   102618063.81043  25060378.398
      3304.566        2574.991          40.000          22.300



 133748269.336 5                  25451450.750   104219459.25342  25451456.508
     -3721.281       -2899.727          35.700          16.900



 107596393.715 8                  20474888.758    83841271.28447  20474892.523
      1599.645        1246.664          53.100          46.100



 122786177.667 6                  23365449.922    95677638.54345  23365457.145
      2725.266        2123.685          41.800          30.700    91691053.730 7
  23365458.758        2035.198          47.700


 120257547.135 7                  22884239.641    93707157.07445  22884243.547
      1499.016        1168.269          43.400          31.100



  97669942.847 8                  18585969.758
     -3976.082                          51.500                    72935402.644 8
  18585983.414       -2968.771          53.000    74837997.588 8  18585980.785
     -3046.222          52.600    73886658.222 9  18585982.215       -3007.496
        57.800
 131684760.181 8                  25058779.047
     -1077.984                          50.700                    98336055.645 8
  25058782.793        -804.838          49.500   100901333.415 8  25058780.543
      -825.834          50.800    99618698.138 9  25058781.813        -815.338
        55.000
 140155963.980 7                  26670802.695
     -2878.539                          44.600                   104662023.671 7
  26670807.613       -2149.578          44.900   107392323.727 7  26670805.078
     -2205.652          44.500   106027162.306 8  26670806.699       -2177.613
        48.800
 142605016.981 6                  27136831.242
     -2374.020                          39.900                   106490763.600 6
  27136834.855       -1772.749          37.200   109268776.196 6  27136831.996
     -1818.997          37.600   107879776.999 6  27136833.402       -1795.866
        41.700
 215362946.577 6                  40982203.063
         3.309                          38.600                   160822929.302 7
  40982186.484           2.549          43.800


 207965167.159 6                  39574461.109
        -3.316                          41.800                   155298537.520 6
  39574454.355          -1.241          38.300


 133242209.897 5                  25355133.141
     -2933.020                          30.100                    99499010.360 6
  25355140.066       -2190.245          36.100


 122963046.458 7                  23399048.000    95815210.67745  23399049.738
     -3342.336       -2604.246          42.500          30.900



 209585708.559 5                  39882835.141
         3.684                          35.700                   156508801.307 6
  39882830.707           2.725          40.100


 211923487.054 6                  40323275.531
         2.926                          36.400



 211609838.651 6                  40268009.969
        37.063                          37.100



 16  1  1 21 11  0.0000000  0 20G25G32G24G17G02G15G12G06G14E14E22E30
                                E19S28S36G01G19S27S25S20
 122516817.016 7                  23314151.453    95467586.57844  23314157.238
      3425.906        2669.557          43.100          27.700    91489771.304 7
  23314159.063        2558.319          47.800


 128977906.981 5                  24543702.391   100502375.80642  24543707.281
       472.066         368.058          35.300          16.300



 108451062.415 8                  20637553.438    84507381.57547  20637560.461
     -1226.094        -955.148          53.600          47.000    80986244.727 9
  20637561.852        -915.354          56.700


 119293308.056 8                  22700782.969    92955942.07546  22700787.199
     -2426.367       -1890.494          49.000          37.600



 131593992.491 6                  25041515.000   102540826.45443  25041516.195
      3303.516        2574.164          41.800          23.200



 133859897.784 5                  25472694.000   104306442.32842  25472699.172
     -3720.754       -2899.177          33.500          16.900



 107548630.106 9                  20465799.266    83804052.89547  20465803.324
      1584.617        1234.929          54.100          45.500



 122704610.431 6                  23349927.578    95614079.64445  23349934.902
      2712.625        2113.877          41.300          30.500    91630143.106 7
  23349936.754        2025.803          47.600


 120212845.479 7                  22875733.188    93672324.61645  22875736.941
      1481.102        1154.331          45.400          31.900



  97789755.136 8                  18608769.336
     -4011.281                          51.200                    73024872.859 8
  18608782.793       -2995.008          53.200    74929801.808 8  18608780.449
     -3073.141          52.500    73977295.441 9  18608781.738       -3034.069
        57.800
 131717304.882 8                  25064972.234
     -1091.633                          50.700                    98360358.503 8
  25064975.754        -815.032          50.400   100926270.261 8  25064973.551
      -836.303          51.000    99643317.988 9  25064974.832        -825.669
        55.000
 140242372.028 7                  26687245.109
     -2881.910                          43.500                   104726549.145 7
  26687250.480       -2152.047          44.800   107458532.481 7  26687247.992
     -2208.182          44.100   106092529.423 8  26687249.555       -2180.118
        48.800
 142676373.258 6                  27150410.273
     -2382.965                          40.600                   106544049.129 6
  27150413.289       -1779.413          38.200   109323451.793 5  27150410.051
     -1825.833          35.300   107933757.567 6  27150412.023       -1802.620
        41.500
 215362854.379 6                  40982187.375
         2.969                          38.600                   160822860.567 7
  40982168.828           2.080          43.900


 207965267.890 6                  39574480.250
        -3.520                          41.600                   155298559.711 6
  39574473.285           -.826          39.100


 133330378.624 4                  25371908.742
     -2944.711                          26.800                    99564850.330 5
  25371917.250       -2198.765          30.200


 123063474.460 7                  23418158.375    95893466.25045  23418160.523
     -3352.891       -2612.530          42.200          30.500



 209585591.779 6                  39882812.188
         3.914                          36.300                   156508713.932 6
  39882808.246           3.001          39.400


 211923392.839 5                  40322851.516
         3.305                          35.400



 211608714.662 6                  40267794.797
        37.762                          37.300



 16  1  1 21 11 30.0000000  0 20G25G32G24G17G02G15G12G06G14E14E22E30
                                E19S28S36R22G19S27S25S20
 122414133.942 6                  23294611.070    95387573.80344  23294617.207
      3419.832        2664.806          41.600          26.900    91413092.389 7
  23294619.031        2553.777          47.900


 128964039.534 6                  24541065.000   100491570.12543  24541068.637
       452.766         352.892          37.100          18.300



 108488108.174 8                  20644603.281    84536248.40347  20644609.914
     -1243.570        -968.861          53.500          47.100    81013908.768 9
  20644611.246        -928.491          56.800


 119366286.048 8                  22714670.547    93012808.04446  22714674.688
     -2438.773       -1900.260          48.300          38.000



 131494904.676 7                  25022658.953   102463615.18244  25022660.230
      3302.434        2573.258          43.900          24.500



 133971504.693 5                  25493930.477   104393408.60743  25493936.773
     -3719.953       -2898.602          34.900          18.300



 107501319.441 8                  20456796.367    83767187.44447  20456800.492
      1569.598        1223.137          52.200          45.800



 122623423.025 6                  23334478.500    95550816.72845  23334485.414
      2700.129        2103.974          41.600          30.900    91569516.138 8
  23334487.383        2016.304          48.500


 120168682.362 7                  22867329.398    93637911.79845  22867332.547
      1463.188        1140.319          43.500          31.700



  97910618.150 8                  18631768.750
     -4046.023                          50.900                    73115127.713 8
  18631782.258       -3021.075          53.100    75022411.132 8  18631779.816
     -3099.888          53.100    74068727.529 9  18631781.086       -3060.482
        57.600
 131750259.654 8                  25071243.211
     -1105.187                          50.800                    98384967.592 8
  25071246.902        -825.235          50.400   100951521.323 8  25071244.559
      -846.765          50.800    99668248.062 9  25071245.934        -836.000
        54.900
 140328878.612 7                  26703706.992
     -2885.102                          43.300                   104791148.188 7
  26703712.051       -2154.499          44.600   107524816.718 7  26703709.895
     -2210.704          44.400   106157971.060 8  26703711.250       -2182.602
        48.900
 142747996.676 6                  27164040.195
     -2391.730                          41.400                   106597534.157 6
  27164043.898       -1786.051          39.300   109378332.090 6  27164039.961
     -1832.646          36.500   107987940.230 7  27164041.449       -1809.350
        42.000
 215362763.391 6                  40982169.797
         3.039                          38.800                   160822791.759 7
  40982151.438           2.399          43.900


 207965369.464 6                  39574499.266
        -3.187                          41.100                   155298780.256 6
  39574493.473           -.729          38.200


 104944003.122 8  19659549.137    19659550.219    81623113.077 8  19659552.520
       -67.501         -52.499          52.800          50.100



 123164220.515 7                  23437329.875    95971969.67145  23437332.586
     -3363.406       -2620.767          42.600          30.800



 209585472.565 5                  39882789.172
         3.934                          35.200                   156508624.657 6
  39882785.746           3.023          39.800


 211923331.653 5                  40322430.594
         2.430                          35.700



 211607587.722 6                  40267585.891
        37.785                          36.800



 16  1  1 21 12  0.0000000  0 21G25G32G24G17G02G15G12G06G14E14E22E30
                                E19S28S36R22R21G19S27S25S20
 122311634.142 7                  23275105.734    95307703.82244  23275112.086
      3413.512        2660.002          42.700          28.400    91336550.353 8
  23275114.438        2549.162          48.400


 128950755.686 6                  24538535.813   100481219.09443  24538541.004
       433.063         337.711          37.100          18.600



 108525681.922 9                  20651753.445    84565526.64647  20651759.906
     -1261.363        -982.594          54.200          46.300    81041967.087 9
  20651761.473        -941.659          56.600


 119439638.331 7                  22728628.719    93069965.66546  22728632.836
     -2451.379       -1909.958          47.600          37.600



 131395853.388 7                  25003809.961   102386432.38143  25003811.758
      3300.887        2572.277          42.800          22.800



 134083087.986 6                  25515165.336   104480356.55543  25515171.734
     -3719.086       -2897.945          37.200          18.300



 107454462.992 9                  20447880.172    83730675.92547  20447884.254
      1554.234        1211.318          54.100          46.100



 122542618.629 6                  23319102.336    95487852.26445  23319109.211
      2686.898        2093.955          41.300          31.500    91509175.190 8
  23319111.234        2006.707          48.500


 120125059.661 7                  22859027.984    93603920.07645  22859032.059
      1444.992        1126.251          44.900          30.400



  98032524.372 8                  18654966.539
     -4080.910                          51.100                    73206161.579 8
  18654980.148       -3046.962          52.900    75115819.793 8  18654977.711
     -3126.446          52.600    74160948.792 9  18654979.051       -3086.699
        57.600
 131783623.713 8                  25077592.266
     -1119.047                          51.200                    98409882.311 8
  25077595.996        -835.417          50.500   100977085.990 8  25077593.512
      -857.211          50.100    99693487.757 9  25077594.879        -846.314
        54.900
 140415483.375 7                  26720187.531
     -2888.605                          43.400                   104855820.546 7
  26720192.520       -2156.924          44.300   107591176.186 7  26720190.316
     -2213.198          44.300   106223486.976 8  26720191.598       -2185.064
        48.900
 142819885.651 6                  27177719.844
     -2400.828                          41.000                   106651217.506 6
  27177723.359       -1792.642          39.100   109433415.874 6  27177720.875
     -1839.403          37.700   108042323.796 7  27177721.652       -1816.023
        42.400
 215362671.814 6                  40982150.953
         2.938                          38.300                   160822723.769 7
  40982133.531           2.270          43.500


 207965470.779 7                  39574519.625
        -3.578                          42.100                   155298801.542 6
  39574512.730           -.734          38.200


 104946465.513 8  19660010.070    19660011.625    81625028.269 8  19660013.379
       -95.770         -74.484          52.800          49.600



 119432895.059 7  22318892.691    22318893.664    92892259.012 6  22318896.773
     -3751.891       -2918.130          44.900          41.800



 123265281.853 7                  23456561.664    96050718.76045  23456563.063
     -3373.969       -2628.909          42.200          30.600



 209585353.883 6                  39882766.125
         4.016                          36.800                   156508536.428 6
  39882763.285           2.963          40.000


 211923269.146 5                  40322010.203
         1.516                          35.200



 211606457.215 6                  40267364.984
        37.750                          37.100



 16  1  1 21 12 30.0000000  0 24G25G32G24G17G02G15G12G06R14R13G14E14
                                E22E30E19S28S36R22R12R21G19S27S25S20
 122209319.060 7                  23255635.547    95227977.77544  23255642.941
      3407.441        2655.206          42.300          29.100    91260146.236 8
  23255644.238        2544.574          48.000


 128938055.758 6                  24536119.516   100471322.95843  24536124.887
       413.539         322.529          37.600          19.600



 108563783.257 8                  20659003.656    84595215.99947  20659010.191
     -1278.812        -996.255          53.500          46.400    81070419.379 9
  20659011.813        -954.745          56.700


 119513363.347 8                  22742658.516    93127413.72746  22742662.301
     -2463.676       -1919.604          48.300          36.900



 131296840.771 6                  24984968.961   102309279.73243  24984969.500
      3299.766        2571.247          40.300          19.600



 134194644.909 6                  25536394.492   104567283.98642  25536400.438
     -3718.168       -2897.226          37.800          17.400



 107408061.345 8                  20439050.281    83694518.79647  20439053.961
      1539.102        1199.508          53.200          45.800



 122462199.887 7                  23303799.047    95425188.28945  23303805.609
      2674.098        2083.910          42.300          30.400    91449122.199 8
  23303807.633        1997.088          48.200


 122923653.133 5  23060164.438    23060165.328    95607314.817 5  23060171.578
      4051.451        3151.157          33.400          34.500



 103700184.781 7  19419714.426    19419716.172    80655702.212 8  19419718.938
      1436.645        1117.378          47.000          49.400



 120081978.657 7                  22850830.047    93570350.47045  22850833.719
      1426.980        1112.164          43.900          30.400



  98155465.673 8                  18678361.664
     -4115.238                          51.000                    73297968.392 8
  18678375.109       -3072.623          52.700    75210021.569 8  18678372.531
     -3152.779          52.900    74253953.090 9  18678373.961       -3112.704
        57.500
 131817396.070 8                  25084018.836
     -1132.566                          50.300                    98435101.935 8
  25084022.770        -845.570          50.100   101002963.514 8  25084020.332
      -867.630          50.800    99719036.334 9  25084021.762        -856.604
        54.900
 140502185.589 7                  26736686.492
     -2891.691                          42.700                   104920565.683 7
  26736691.480       -2159.340          45.100   107657610.329 7  26736689.371
     -2215.672          44.300   106289076.612 8  26736690.574       -2187.506
        49.100
 142892038.306 6                  27191449.516
     -2409.496                          40.500                   106705097.715 6
  27191453.875       -1799.193          39.200   109488701.675 6  27191450.730
     -1846.130          36.600   108096906.801 7  27191452.035       -1822.657
        42.500
 215362579.900 6                  40982134.313
         3.023                          38.500                   160822654.818 7
  40982116.914           2.219          43.500


 207965571.497 6                  39574538.078
        -3.340                          41.700                   155298822.57816
  39574531.770           -.166          38.100


 104949775.120 8  19660630.105    19660631.188    81627602.416 8  19660633.637
      -123.954         -96.416          53.000          49.400



 108149295.883 7  20245776.633    20245777.969    84116121.440 7  20245781.688
     -2676.254       -2081.517          46.600          45.700



 119545663.476 7  22339966.566    22339966.953    92979967.783 6  22339970.117
     -3765.538       -2928.757          45.000          41.800



 123366655.940 7                  23475852.211    96129711.56045  23475854.332
     -3384.301       -2637.003          42.300          30.900



 209585233.792 6                  39882744.000
         3.887                          36.300                   156508446.375 6
  39882740.457           3.065          40.600


 211923197.985 5                  40321584.984
         2.777                          35.500



 211605325.414 6                  40267158.984
        38.188                          36.700



 16  1  1 21 13  0.0000000  0 25G25G32G24G17G02G15G12G06R14R13G14E14
                                E22E30E19S28S36R22R12R21G19G03S27S25
                                S20
 122107190.296 7                  23236201.547    95148396.94145  23236208.195
      3401.223        2650.355          42.900          30.000    91183881.260 7
  23236209.082        2539.931          47.400


 128925940.312 6                  24533813.711   100461882.40543  24533818.602
       394.469         307.378          39.300          19.300



 108602411.421 8                  20666354.352    84625315.86747  20666360.652
     -1296.141       -1009.913          53.400          46.700    81099265.087 9
  20666362.277        -967.832          56.800


 119587459.054 8                  22756758.945    93185150.64846  22756762.105
     -2475.797       -1929.185          48.700          36.900



 131197869.392 6                  24966134.664   102232159.16742  24966134.992
      3298.648        2570.179          36.500          12.600



 134306173.650 5                  25557617.117   104654189.48542  25557623.766
     -3716.789       -2896.439          34.700          14.800



 107362115.435 8                  20430307.039    83658716.78847  20430310.805
      1524.148        1187.688          53.400          45.800



 122382169.830 7                  23288569.563    95362827.16845  23288576.559
      2661.332        2073.817          42.100          30.600    91389359.465 8
  23288578.762        1987.405          48.200


 122802153.453 5  23037373.117    23037372.719    95512815.036 5  23037378.766
      4048.571        3148.874          35.500          33.700



 103657378.203 7  19411698.094    19411699.602    80622408.198 8  19411702.625
      1417.782        1102.695          46.700          49.600



 120039441.308 7                  22842735.680    93537204.47945  22842738.965
      1409.043        1098.044          45.400          31.800



  98279434.352 8                  18701952.164
     -4149.105                          50.500                    73390542.405 8
  18701965.715       -3098.083          53.100    75305010.556 8  18701963.184
     -3178.902          52.800    74347734.588 9  18701964.605       -3138.491
        57.600
 131851575.713 8                  25090523.047
     -1145.852                          50.000                    98460625.694 8
  25090526.980        -855.661          50.400   101029153.107 8  25090524.355
      -877.980          50.300    99744893.005 9  25090525.797        -866.819
        54.900
 140588984.650 7                  26753204.023
     -2894.738                          43.300                   104985383.152 7
  26753208.723       -2161.735          44.700   107724118.684 7  26753206.281
     -2218.129          44.100   106354739.527 8  26753207.773       -2189.935
        48.800
 142964452.758 6                  27205230.445
     -2418.062                          40.800                   106759173.459 6
  27205234.770       -1805.612          40.200   109544188.082 6  27205231.813
     -1852.723          37.400   108151687.876 7  27205232.199       -1829.163
        43.300
 215362487.964 6                  40982117.609
         3.391                          39.200                   160822586.722 7
  40982099.531           2.401          43.300


 207965674.429 7                  39574557.453
        -3.117                          42.100                   155298844.26516
  39574550.770          -1.037          37.900


 104953931.519 8  19661408.664    19661409.984    81630835.163 8  19661412.211
      -152.152        -118.342          52.700          49.500



 108229833.318 7  20260853.617    20260855.188    84178761.668 7  20260858.281
     -2692.300       -2094.018          46.400          45.400



 119658840.736 7  22361115.637    22361116.844    93067994.546 6  22361119.961
     -3779.083       -2939.277          44.700          41.800



 123468339.638 7                  23495201.664    96208945.61645  23495203.891
     -3394.422       -2644.992          43.400          31.700



 132590163.501 5                  25231046.109   103316952.87542  25231054.480
      2048.914        1596.612          35.400          14.800    99012075.583 6
  25231054.203        1530.080          37.500


 209585113.353 5                  39882721.344
         4.238                          35.400                   156508356.780 6
  39882717.707           2.956          40.100


 211923142.626 5                  40321162.297
         2.000                          35.100



 211604189.886 6                  40266937.344
        38.008                          37.200



 16  1  1 21 13 30.0000000  0 26G25G32G24G17G02G15G12G06R14R13G14E14
                                E22E30E19S28S36R22R12R21G19G03R23S27
                                S25S20
 122005249.192 7                  23216803.539    95068962.30044  23216809.566
      3394.781        2645.460          43.200          29.300    91107756.392 7
  23216810.512        2535.229          47.000


 128914409.750 6                  24531618.625   100452897.51943  24531623.652
       374.602         292.125          36.100          18.600



 108641565.029 8                  20673805.133    84655825.17547  20673811.652
     -1313.852       -1023.540          52.700          46.800    81128503.176 9
  20673813.160        -980.894          56.700


 119661922.771 7                  22770928.047    93243174.32446  22770932.160
     -2488.324       -1938.699          47.400          36.600



 131098941.785 5                  24947309.047
      3296.672                          34.800



 134417671.371 4                  25578832.805   104741070.78242  25578840.621
     -3716.000       -2895.711          28.600          12.600



 107316626.238 8                  20421650.750    83623270.66547  20421654.496
      1508.707        1175.805          53.500          45.900



 122302531.133 7                  23273414.773    95300770.98845  23273422.168
      2648.102        2063.628          42.200          30.900    91329888.942 8
  23273424.191        1977.642          48.800


 122680743.878 6  23014596.191    23014597.789    95418385.380 5  23014603.313
      4045.510        3146.531          36.400          34.200



 103615140.135 7  19403788.543    19403790.523    80589556.353 8  19403793.020
      1398.772        1087.941          46.800          49.500



 119997448.858 7                  22834744.219    93504483.09145  22834748.316
      1390.750        1083.890          45.800          30.300



  98404422.254 8                  18725736.438
     -4183.141                          50.900                    73483877.532 8
  18725749.953       -3123.354          53.000    75400780.516 8  18725747.563
     -3204.831          52.500    74442287.129 9  18725748.895       -3164.090
        57.400
 131886161.482 8                  25097104.578
     -1159.574                          50.600                    98486452.730 8
  25097108.484        -865.762          50.600   101055653.899 8  25097105.668
      -888.348          50.900    99771056.922 9  25097107.293        -877.057
        55.000
 140675879.722 7                  26769739.258
     -2898.137                          42.300                   105050272.316 7
  26769744.168       -2164.122          44.400   107790700.610 7  26769742.012
     -2220.577          44.100   106420475.066 8  26769743.305       -2192.346
        48.800
 143037127.086 6                  27219059.633
     -2426.762                          41.200                   106813443.260 6
  27219062.738       -1812.103          38.900   109599873.631 6  27219060.488
     -1859.373          38.200   108206665.551 7  27219061.688       -1835.738
        42.800
 215362397.361 6                  40982100.953
         2.660                          39.500                   160822519.013 7
  40982081.328           1.913          43.700


 207965773.043 7                  39574576.344
        -3.434                          42.000                   155299060.89316
  39574570.340          -1.375          38.200


 104958933.647 8  19662346.426    19662347.273    81634725.714 8  19662349.641
      -180.351        -140.278          53.000          49.000



 108310852.831 7  20276021.133    20276022.352    84241776.845 7  20276025.809
     -2708.384       -2106.521          46.700          45.100



 119772422.688 7  22382341.574    22382341.492    93156336.081 6  22382346.039
     -3792.556       -2949.742          43.900          41.900



 123570330.273 7                  23514609.594    96288418.83045  23514611.988
     -3404.730       -2652.925          42.300          30.400



 132528923.581 5                  25219391.781   103269233.64142  25219399.625
      2033.711        1585.115          33.100          14.800    98966344.538 6
  25219400.402        1519.039          38.400


 115184453.295 7  21532519.629    21532520.172    89587910.452 6  21532526.184
      4001.127        3111.988          47.800          38.700



 209584990.549 6                  39882696.891
         4.109                          36.700                   156508264.588 6
  39882693.746           3.186          40.300


 211923087.954 5                  40320742.219
         2.086                          35.100



 211603053.294 6                  40266722.531
        38.012                          37.500



 16  1  1 21 14  0.0000000  0 28G25G32G24G17G02G15G12G06R14R13G14E14
                                E22E30E19S28S36R22R12R21R04G19R05G03
                                R23S27S25S20
 121903497.532 6                  23197439.492    94989675.29944  23197446.340
      3388.707        2640.554          41.800          28.600    91031773.005 7
  23197447.637        2530.524          47.500


 128903464.604 5                  24529535.789   100444368.91042  24529541.742
       355.270         276.979          35.200          17.800



 108681244.100 8                  20681356.125    84686743.92847  20681362.656
     -1331.246       -1037.182          53.200          46.400    81158133.650 9
  20681364.160        -993.973          56.900


 119736752.889 8                  22785167.719    93301483.51446  22785172.059
     -2500.348       -1948.214          49.100          36.800



 131000060.638 5                  24928493.164
      3295.270                          35.400



 134529136.001 5                  25600044.906
     -3715.031                          33.300



 107271594.957 8                  20413081.648    83588181.35847  20413085.461
      1493.504        1163.913          53.900          46.200



 122223287.010 7                  23258335.328    95239022.28345  23258342.836
      2634.961        2053.344          43.200          30.500    91270713.089 8
  23258344.801        1967.785          48.500


 122559427.220 6  22991837.941    22991839.422    95324027.936 5  22991843.711
      4042.347        3144.075          38.400          34.300



 103573472.627 7  19395985.531    19395986.805    80557148.289 8  19395990.117
      1379.720        1073.132          46.700          49.600



 119956003.165 7                  22826857.359    93472187.74045  22826861.281
      1372.488        1069.651          46.300          30.400



  98530421.776 8                  18749713.414
     -4216.625                          50.600                    73577968.087 8
  18749726.930       -3148.431          52.500    75497325.607 8  18749724.445
     -3230.569          52.500    74537604.954 9  18749725.734       -3189.501
        57.400
 131921152.711 8                  25103763.305
     -1173.023                          51.100                    98512582.549 8
  25103766.953        -875.852          50.300   101082465.355 8  25103764.371
      -898.694          50.300    99797527.560 9  25103765.781        -887.277
        54.900
 140762870.429 7                  26786292.961
     -2901.234                          43.600                   105115232.908 7
  26786297.715       -2166.484          44.400   107857355.819 7  26786295.371
     -2223.003          44.200   106486282.970 8  26786296.867       -2194.741
        48.500
 143110059.713 6                  27232937.391
     -2435.285                          39.800                   106867905.933 6
  27232941.785       -1818.492          40.000   109655757.075 6  27232938.176
     -1865.929          37.700   108261838.610 7  27232940.324       -1842.210
        43.400
 215362303.915 6                  40982083.125
         3.105                          39.300                   160822449.281 7
  40982064.273           2.471          43.400


 207965875.960 7                  39574596.094
        -3.355                          42.200                   155299082.643 6
  39574589.598           -.759          38.300


 104964781.310 8  19663441.754    19663442.836    81639273.892 8  19663445.105
      -208.485        -162.156          53.100          50.100



 108392353.388 7  20291278.797    20291278.961    84305166.149 7  20291283.352
     -2724.395       -2118.960          46.600          45.700



 119886405.613 7  22403641.473    22403642.445    93244989.437 6  22403646.449
     -3805.830       -2960.073          44.100          41.600



 117928334.330 7  22022287.078    22022286.883    91722041.059 7  22022290.301
     -1570.410       -1221.438          45.600          42.900



 123672625.203 7                  23534075.953    96368129.16045  23534078.047
     -3414.738       -2660.776          42.800          31.300



 121898665.920 6  22803666.133    22803668.281    94810077.042 6  22803670.652
      2063.311        1604.800          39.000          38.800



 132468126.396 5                  25207821.094   103221859.15242  25207829.160
      2019.277        1573.548          35.800          16.300    98920944.037 6
  25207831.930        1508.003          40.300


 115064635.885 7  21510121.590    21510122.133    89494719.150 6  21510127.762
      3987.209        3101.167          47.900          38.200



 209584869.434 5                  39882675.156
         4.410                          35.900                   156508174.396 6
  39882670.934           3.089          40.200


 211923011.694 5                  40320312.234
         1.688                          35.000



 211601914.742 5                  40266502.891
        38.324                          35.700



 16  1  1 21 14 30.0000000  0 28G25G32G24G17G02G15G12G06R14R13G14E14
                                E22E30E19S28S36R22R12R21R04G19R05G03
                                R23S27S25S20
 121801936.548 6                  23178112.867    94910536.87844  23178119.922
      3382.012        2635.533          40.700          27.600    90955932.018 8
  23178121.336        2525.717          48.300


 128893105.168 6                  24527565.500   100436296.65442  24527569.766
       335.457         261.710          37.100          16.900



 108721447.358 8                  20689006.094    84718071.14747  20689012.402
     -1348.953       -1050.828          51.300          46.300    81188155.566 9
  20689013.852       -1007.043          56.700


 119811946.733 8                  22799477.000    93360076.11146  22799480.531
     -2512.598       -1957.653          48.200          36.400



 130901228.200 6                  24909686.258   102001006.17642  24909687.695
      3293.336        2566.410          36.700          17.800



 134640564.547 6                  25621249.875   104914751.67142  25621254.023
     -3713.832       -2893.802          37.400          16.900



 107227021.927 8                  20404599.508    83553449.12347  20404603.414
      1478.027        1151.966          52.100          46.200



 122144439.971 7                  23243331.234    95177583.02045  23243338.516
      2621.418        2042.931          42.700          30.500    91211833.788 8
  23243340.484        1957.811          49.000


 122438205.552 6  22969097.410    22969099.125    95229744.423 5  22969103.363
      4039.135        3141.546          38.300          33.100



 103532377.292 7  19388289.570    19388290.961    80525185.260 8  19388294.023
      1360.580        1058.221          47.000          49.600



 119915105.301 7                  22819074.734    93440319.27545  22819078.770
      1353.973        1055.374          46.300          31.300



  98657424.609 8                  18773881.078
     -4250.090                          50.600                    73672807.863 8
  18773894.676       -3173.350          52.800    75594639.462 8  18773892.238
     -3256.135          52.900    74633681.771 9  18773893.578       -3214.745
        57.400
 131956547.975 8                  25110498.750
     -1186.621                          50.300                    98539014.076 8
  25110502.539        -885.919          50.400   101109586.405 8  25110499.957
      -909.031          50.900    99824303.847 9  25110501.281        -897.476
        54.900
 140849955.748 7                  26802864.938
     -2904.555                          43.100                   105180264.127 7
  26802869.980       -2168.872          43.600   107924083.497 7  26802867.633
     -2225.446          44.200   106552162.419 8  26802868.813       -2197.158
        48.300
 143183248.434 6                  27246865.180
     -2444.016                          38.900                   106922559.836 6
  27246868.949       -1824.885          40.400   109711836.734 6  27246866.465
     -1872.489          37.900   108317205.395 7  27246867.684       -1848.688
        43.800
 215362213.106 6                  40982064.438
         3.145                          39.100                   160822380.952 7
  40982047.320           2.411          43.400


 207965979.485 7                  39574616.234
        -3.398                          42.000                   155299105.043 6
  39574608.895           -.655          37.800


 104971473.295 8  19664695.070    19664696.625    81644478.775 8  19664698.508
      -236.663        -184.088          51.900          49.600



 108474332.546 7  20306625.117    20306625.867    84368927.712 7  20306629.883
     -2740.346       -2131.392          46.100          45.400



 120000785.176 7  22425016.965    22425017.000    93333951.326 6  22425021.195
     -3819.001       -2970.348          43.600          41.000



 117975841.939 7  22031158.105    22031159.203    91758991.419 6  22031160.852
     -1595.896       -1241.249          45.800          41.500



 123775221.268 7                  23553599.164    96448074.15145  23553601.973
     -3424.883       -2668.617          42.400          30.600



 121837134.602 6  22792155.563    22792157.242    94762219.351 6  22792160.148
      2039.578        1586.324          38.600          39.000



 132407773.677 5                  25196337.391   103174831.09142  25196344.020
      2004.402        1561.988          34.900          15.600    98875875.531 6
  25196345.559        1496.885          39.700


 114945236.016 8  21487800.559    21487801.570    89401852.587 6  21487807.055
      3973.225        3090.276          48.100          38.500



 209584747.179 5                  39882652.328
         4.102                          35.600                   156508083.548 6
  39882648.059           3.060          39.400


 211922954.429 5                  40319895.672
         1.523                          35.100



 211600772.697 6                  40266285.703
        38.391                          37.100



                            4  1
other post-header comments skipped                          COMMENT
 16  1  1 21 15  0.0000000  0 28G25G32G24G17G02G15G12G06R14R13G14E14
                                E22E30E19S28S36R22R12R21R04G19R05G03
                                R23S27S25S20
 121700567.667 6                  23158823.711    94831548.15845  23158830.711
      3375.633                          41.800          30.600    90880234.493 7
  23158831.949                          47.900


 128883331.770 5                  24525704.766   100428680.97642  24525709.844
       315.836                          35.700          16.900



 108762173.742 8                  20696756.195    84749805.99247  20696762.824
     -1366.395                          53.700          46.600    81218568.121 9
  20696764.156                          56.700


 119887502.380 7                  22813854.508    93418950.64246  22813858.152
     -2524.559                          47.800          36.200



 130802447.187 6                  24890888.383   101924034.03143  24890889.582
      3291.738                          38.800          19.000



 134751954.761 6                  25642447.328   105001549.16343  25642452.281
     -3712.570                          38.300          21.100



 107182908.099 9                  20396204.977    83519074.71547  20396208.648
      1462.633                          54.300          46.700



 122065992.778 7                  23228403.203    95116455.32545  23228410.301
      2608.141                          43.400          31.100    91153253.078 8
  23228412.559                          48.800


 122317080.429 6  22946373.512    22946374.523    95135535.954 5  22946379.973
                                        37.000          33.600



 103491856.115 7  19380701.012    19380702.875    80493668.784 8  19380705.520
                                        46.700          49.400



 119874756.865 7                  22811396.977    93408878.94945  22811400.840
      1335.684                          46.800          30.800



  98785422.752 8                  18798238.508
     -4283.172                          50.800                    73768390.891 8
  18798251.992                          52.700    75692715.958 8  18798249.602
                        52.200    74730511.530 9  18798250.875
        57.300
 131992346.257 8                  25117310.766
     -1200.098                          50.200                    98565746.556 8
  25117314.648                          50.700   101137016.250 8  25117312.207
                        50.800    99851385.014 9  25117313.484
        54.900
 140937135.039 7                  26819454.305
     -2907.531                          43.100                   105245365.537 7
  26819459.254                          43.300   107990883.198 7  26819457.238
                        43.700   106618112.971 7  26819458.324
        47.900
 143256691.336 6                  27260841.023
     -2452.348                          40.900                   106977403.556 6
  27260844.598                          39.900   109768111.195 6  27260842.863
                        40.000   108372764.474 7  27260843.629
        44.200
 215362119.839 6                  40982046.250
         2.945                          39.300                   160822311.813 7
  40982028.547                          43.800


 207966080.258 7                  39574635.094
        -3.449                          42.600                   155299325.045 6
  39574627.215                          38.700


 104979008.966 8  19666106.816    19666107.781    81650339.855 8  19666110.137
                                        53.000          49.400



 108556789.193 7  20322061.133    20322062.234    84433060.631 7  20322065.965
                                        46.600          45.400



 120115557.369 7  22446463.652    22446465.094    93423218.559 6  22446468.148
                                        43.700          41.000



 118024113.082 7  22040172.676    22040173.773    91796535.634 7  22040175.535
                                        46.300          42.200



 123878115.436 7                  23573179.836    96528251.41444  23573181.945
     -3434.812                          42.300          29.900



 121776315.786 6  22780778.605    22780779.344    94714915.823 6  22780782.859
                                        38.300          39.100



 132347868.099 6                  25184937.398   103128151.42042  25184944.020
      1989.371                          38.100          16.900    98831140.835 6
  25184946.730                          41.800


 114826257.804 8  21465559.402    21465559.945    89309314.003 6  21465565.988
                                        48.900          38.900



 209584623.465 6                  39882628.250
         3.855                          36.300                   156507990.932 6
  39882623.699                          39.300


 211922898.773 5                  40319463.484
         1.105                          34.900



 211599627.568 6                  40266065.656
        38.043                          37.700



 16  1  1 21 15 30.0000000  0 28G25G32G24G17G02G15G12G06R14R13G14E14
                                E22E30E19S28S36R22R12R21R04G19R05G03
                                R23S27S25S20
 121599392.228 6                  23139570.180    94752710.17144  23139577.207
      3369.402        2625.497          40.700          29.700    90804681.405 8
  23139578.621        2516.105          48.900


 128874144.364 6                  24523957.203   100421521.87243  24523961.074
       296.605         231.309          39.200          18.600



 108803422.337 8                  20704605.664    84781947.75147  20704612.316
     -1383.551       -1077.944          53.200          46.000    81249370.646 9
  20704613.824       -1033.028          56.600


 119963417.320 7                  22828300.656    93478105.13646  22828304.660
     -2536.457       -1976.324          46.000          36.200



 130703719.660 6                  24872102.070   101847103.50843  24872102.906
      3290.059        2563.667          40.200          22.500



 134863304.253 6                  25663635.930   105088314.95943  25663640.594
     -3710.895       -2891.667          39.200          19.300



 107139253.985 8                  20387898.086    83485058.52547  20387901.676
      1447.625        1128.099          51.700          45.700



 121987948.078 7                  23213551.094    95055641.27045  23213558.992
      2594.813        2022.049          42.600          30.300    91094972.944 8
  23213561.250        1937.800          49.700


 122196054.065 6  22923668.582    22923670.766    95041404.339 5  22923675.426
      4032.622        3136.501          36.800          34.300



 103451910.714 7  19373221.352    19373222.859    80462600.133 8  19373225.754
      1322.244        1028.408          46.400          49.000



 119834959.144 7                  22803823.391    93377867.74445  22803826.746
      1317.469        1026.791          44.700          30.400



  98914408.064 8                  18822783.656
     -4315.777                          49.900                    73864711.091 8
  18822796.992       -3222.472          52.900    75791548.859 8  18822794.461
     -3306.542          52.400    74828088.080 9  18822795.781       -3264.504
        57.200
 132028546.265 8                  25124199.586
     -1213.324                          48.600                    98592779.032 8
  25124203.246        -905.911          50.500   101164753.924 8  25124200.617
      -929.541          50.400    99878770.084 9  25124202.027        -917.728
        54.900
 141024407.447 7                  26836062.180
     -2910.562                          42.400                   105310536.478 7
  26836066.988       -2173.466          43.100   108057754.251 7  26836064.832
     -2230.165          42.600   106684133.970 7  26836065.789       -2201.819
        47.800
 143330386.410 6                  27274865.320
     -2460.582                          39.900                   107032435.583 6
  27274868.434       -1837.422          40.800   109824578.831 6  27274864.121
     -1885.359          37.700   108428514.320 7  27274867.340       -1861.394
        43.800
 215362027.268 6                  40982029.703
         3.207                          38.900                   160822242.718 7
  40982010.945           2.340          43.800


 207966179.609 6                  39574653.750
        -3.293                          41.600                   155299344.406 6
  39574647.043           -.578          37.900


 104987387.160 8  19667675.781    19667677.805    81656856.220 8  19667679.434
      -292.841        -227.757          51.500          50.000



 108639721.130 7  20337586.055    20337586.570    84497563.257 7  20337590.836
     -2772.036       -2156.027          45.300          45.500



 120230718.095 7  22467984.316    22467985.406    93512788.015 6  22467989.289
     -3844.881       -2990.470          43.000          41.000



 118073144.802 7  22049329.156    22049329.313    91834671.397 6  22049331.070
     -1646.616       -1280.707          46.200          41.700



 123981305.132 7                  23592816.266    96608658.97745  23592818.094
     -3444.457       -2683.943          42.300          31.100



 121716212.431 6  22769535.289    22769536.500    94668168.748 6  22769539.305
      1991.923        1549.258          38.400          38.600



 132288411.381 5                  25173623.266   103081821.53942  25173629.395
      1974.551        1538.681          35.500          16.300    98786741.384 6
  25173631.516        1474.571          40.800


 114707704.798 7  21443396.746    21443397.758    89217106.116 6  21443403.258
      3944.849        3068.219          47.300          39.100



 209584498.310 6                  39882604.625
         4.234                          36.100                   156507897.493 6
  39882600.238           3.049          40.200


 211922863.498 5                  40319041.531
         2.117                          34.500



 211598477.507 6                  40265854.031
        38.227                          37.300



 16  1  1 21 16  0.0000000  0 28G25G32G24G17G02G15G12G06R14R13G14E14
                                E22E30E19S28S36R22R12R21R04G19R05G03
                                R23S27S25S20
 121498412.087 6                  23120354.188    94674024.36144  23120361.309
      3362.781        2620.399          40.300          29.100    90729274.159 8
  23120362.605        2511.224          48.400


 128865543.719 6                  24522319.328   100414820.09443  24522325.609
       276.977         216.058          40.400          21.300



 108845192.415 8                  20712554.070    84814495.86147  20712561.109
     -1401.016       -1091.475          53.500          46.000    81280562.589 9
  20712562.266       -1045.995          56.400


 120039689.729 7                  22842814.797    93537538.18646  22842818.367
     -2548.297       -1985.569          45.800          36.200



 130605048.536 6                  24853325.000   101770216.93944  24853326.832
      3288.145        2562.192          41.400          24.100



 134974610.689 6                  25684816.883   105175047.22043  25684821.570
     -3709.434       -2890.468          39.800          21.100



 107096060.940 8                  20379678.297    83451401.60647  20379682.051
      1432.082        1116.125          53.400          45.800



 121910309.006 7                  23198777.602    94995143.31344  23198784.555
      2581.145        2011.471          43.300          29.900    91036995.730 8
  23198787.051        1927.661          49.700


 122075129.118 5  22900984.020    22900985.383    94947351.578 5  22900990.395
      4029.170        3133.809          35.500          35.200



 103412543.318 7  19365848.414    19365849.688    80431981.055 8  19365853.133
      1302.931        1013.387          46.600          50.000



 119795713.680 7                  22796355.742    93347286.85545  22796358.781
      1298.973        1012.441          46.400          30.600



  99044372.787 8                  18847515.195
     -4348.340                          51.000                    73961762.667 8
  18847528.582       -3246.754          52.700    75891132.218 8  18847526.051
     -3331.457          52.300    74926405.551 9  18847527.418       -3289.105
        57.200
 132065147.271 8                  25131164.383
     -1226.695                          50.100                    98620110.952 8
  25131168.117        -915.869          50.400   101192798.848 8  25131165.680
      -939.757          50.800    99906458.508 9  25131166.980        -927.814
        54.900
 141111772.594 7                  26852686.852
     -2913.727                          43.800                   105375776.702 7
  26852692.020       -2175.786          43.600   108124696.399 7  26852689.488
     -2232.550          43.600   106750225.155 7  26852690.789       -2204.168
        47.600
 143404332.102 6                  27288936.328
     -2468.996                          38.900                   107087654.781 6
  27288939.684       -1843.638          40.000   109881238.497 6  27288938.137
     -1891.730          40.100   108484453.745 7  27288938.508       -1867.685
        44.200
 215361934.595 6                  40982012.969
         3.090                          39.700                   160822173.243 7
  40981993.555           2.147          44.000


 207966277.063 7                  39574672.453
        -3.203                          42.000                   155299361.387 6
  39574666.355           -.535          37.500


 104996607.332 8  19669403.809    19669404.656    81664027.457 8  19669407.363
      -320.864        -249.550          53.000          49.900



 108723126.926 7  20353199.516    20353200.852    84562434.434 7  20353204.328
     -2787.780       -2168.289          45.800          45.200



 120346263.665 7  22489576.879    22489578.086    93602656.741 6  22489581.801
     -3857.699       -3000.404          43.500          41.400



 118122935.289 7  22058627.473    22058629.039    91873397.329 6  22058629.531
     -1671.905       -1300.350          46.400          41.600



 124084787.104 6                  23612507.664    96689294.27344  23612510.012
     -3454.203       -2691.472          41.800          29.900



 121656827.330 6  22758426.020    22758426.523    94621980.297 6  22758429.406
      1967.886        1530.633          38.000          38.600



 132229406.348 6                  25162395.555   103035843.52942  25162401.844
      1959.328        1526.924          37.000          16.300    98742679.142 7
  25162403.965        1463.289          42.200


 114589580.861 8  21421314.449    21421315.813    89125231.955 6  21421321.180
      3930.521        3057.067          48.300          39.300



 209584372.548 6                  39882579.000
         4.500                          36.100                   156507803.742 6
  39882576.277           3.400          39.700


 211922808.595 5                  40318609.031
         1.453                          34.600



 211597325.184 6                  40265631.953
        38.430                          36.900



 16  1  1 21 16 30.0000000  0 28G25G32G24G17G02G15G12G06R14R13G14E14
                                E22E30E19S28S36R22R12R21R04G19R05G03
                                R23S27S25S20
 121397628.577 6                  23101175.922    94595491.75944  23101182.641
      3356.211        2615.271          41.200          29.800    90654013.759 8
  23101184.816        2506.293          48.900


 128857530.062 6                  24520794.352   100408575.72343  24520801.055
       257.426         200.793          37.900          20.900



 108887483.214 8                  20720601.500    84847449.73247  20720608.324
     -1418.234       -1105.001          53.700          46.300    81312143.380 9
  20720609.832       -1058.956          56.900


 120116317.570 7                  22857396.680    93597248.18946  22857400.270
     -2560.051       -1994.791          47.300          36.800



 130506436.235 6                  24834559.734   101693376.21744  24834561.086
      3286.160        2560.608          41.300          25.000



 135085871.738 6                  25705989.680   105261744.13343  25705994.133
     -3707.668       -2889.303          36.900          19.000



 107053329.413 9                  20371546.992    83418104.31547  20371550.598
      1416.789        1104.097          54.000          46.800



 121833078.103 7                  23184080.445    94934963.37445  23184088.152
      2567.617        2000.846          44.200          31.300    90979323.298 8
  23184090.645        1917.476          49.500


 121954307.428 6  22878318.035    22878320.688    94853379.201 5  22878324.477
      4025.716        3131.114          36.900          34.700



 103373755.388 7  19358584.926    19358586.906    80401812.675 8  19358589.473
      1283.557         998.313          47.000          49.600



 119757021.910 7                  22788993.109    93317137.42145  22788996.125
      1280.570         998.013          47.100          31.200



  99175308.803 8                  18872431.117
     -4380.547                          51.200                    74059539.567 8
  18872444.809       -3270.856          52.700    75991459.821 8  18872442.277
     -3356.181          52.300    75025457.801 9  18872443.781       -3313.520
        57.100
 132102148.080 8                  25138205.500
     -1239.980                          50.500                    98647741.431 8
  25138209.371        -925.832          50.700   101221150.123 8  25138206.602
      -949.983          50.200    99934449.383 9  25138208.113        -937.906
        54.900
 141199229.608 7                  26869329.078
     -2916.672                          43.500                   105441085.498 7
  26869334.078       -2178.062          42.500   108191708.897 7  26869331.828
     -2234.879          43.400   106816385.806 7  26869333.152       -2206.474
        47.400
 143478526.285 6                  27303054.172
     -2477.258                          36.600                   107143059.494 6
  27303058.410       -1849.812          40.700   109938088.594 6  27303054.238
     -1898.067          37.800   108540581.157 7  27303057.422       -1873.939
        43.700
 215361840.792 6                  40981994.547
         3.230                          39.600                   160822103.045 7
  40981976.492           2.301          43.900


 207966377.429 7                  39574692.125
        -3.160                          42.700                   155299381.127 6
  39574685.676           -.621          37.500


 105006668.512 8  19671288.348    19671289.430    81671852.824 8  19671291.570
      -348.937        -271.384          53.100          49.800



 108807004.941 7  20368901.414    20368902.984    84627672.842 7  20368906.512
     -2803.569       -2180.540          46.000          45.200



 120462189.927 7  22511240.809    22511241.898    93692821.607 6  22511245.172
     -3870.292       -3010.232          43.900          40.900



 118173481.656 7  22068065.469    22068065.742    91912711.178 7  22068069.129
     -1697.042       -1319.920          46.400          43.000



 124188559.160 7                  23632255.109    96770155.61445  23632257.277
     -3463.566       -2698.989          42.000          30.600



 121598163.156 6  22747451.246    22747452.219    94576352.656 6  22747455.094
      1943.840        1511.866          38.400          37.400



 132170855.089 6                  25151253.961   102990219.18543  25151259.355
      1944.281        1515.069          39.800          18.300    98698955.828 6
  25151261.711        1451.956          41.400


 114471889.647 8  21399313.918    21399314.578    89033694.340 6  21399320.055
      3916.008        3045.792          48.500          39.400



 209584246.981 6                  39882557.047
         4.375                          36.300                   156507709.928 6
  39882551.863           3.177          40.700


 211922775.194 5                  40318189.109
         2.039                          34.800



 211596173.222 6                  40265415.719
        38.582                          37.500



 16  1  1 21 17  0.0000000  0 28G25G32G24G17G02G15G12G06R14R13G14E14
                                E22E30E19S28S36R22R12R21R04G19R05G03
                                R23S27S25S20
 121297043.326 6                  23082035.336    94517113.62644  23082042.121
      3349.625        2610.121          41.400          29.800    90578901.410 8
  23082044.004        2501.363          49.400


 128850103.917 6                  24519382.141   100402789.06643  24519387.051
       237.988         185.504          38.300          20.900



 108930294.047 8                  20728748.250    84880808.81947  20728754.859
     -1435.527       -1118.496          53.000          46.200    81344112.504 9
  20728756.367       -1071.884          56.600


 120193298.596 7                  22872045.875    93657233.40046  22872049.293
     -2571.836       -2003.920          46.800          36.100



 130407885.450 6                  24815806.289   101616583.45544  24815807.785
      3284.141        2558.950          41.300          24.200



 135197085.148 5                  25727152.258   105348403.87042  25727157.082
     -3706.160       -2888.050          33.500          17.800



 107011060.643 8                  20363503.484    83385167.61347  20363507.105
      1401.418        1092.076          53.000          46.600



 121756258.388 7                  23169462.938    94875103.86145  23169469.988
      2553.871        1990.148          44.500          31.500    90921957.940 8
  23169472.426        1907.217          49.500


 121833591.563 5  22855671.988    22855674.289    94759489.082 6  22855679.719
      4022.107        3128.356          34.800          37.000



 103335549.140 7  19351430.031    19351431.305    80372096.697 8  19351434.473
      1264.178         983.242          47.200          49.900



 119718885.176 7                  22781735.672    93287420.47745  22781738.723
      1262.070         983.599          47.400          31.100



  99307208.178 8                  18897531.102
     -4412.496                          50.600                    74158035.850 8
  18897544.422       -3294.733          52.300    76092525.574 8  18897542.078
     -3380.678          52.000    75125238.817 9  18897543.395       -3337.707
        57.100
 132139547.665 8                  25145322.133
     -1253.168                          50.500                    98675669.692 8
  25145326.191        -935.727          50.600   101249806.949 8  25145323.473
      -960.135          50.500    99962741.926 9  25145324.992        -947.929
        54.900
 141286777.971 7                  26885989.367
     -2919.711                          43.300                   105506462.520 7
  26885994.102       -2180.328          42.100   108258791.410 7  26885991.754
     -2237.211          43.200   106882615.570 7  26885993.238       -2208.770
        47.200
 143552967.277 6                  27317219.758
     -2485.281                          37.300                   107198648.565 6
  27317224.527       -1855.908          41.600   109995127.772 6  27317222.184
     -1904.320          39.400   108596895.274 7  27317222.793       -1880.117
        44.500
 215361748.000 6                  40981974.922
         3.090                          39.400                   160822033.862 7
  40981958.250           2.240          43.600


 207966476.091 7                  39574710.484
        -3.297                          42.300                   155299598.016 6
  39574704.551          -1.236          38.000


 105017569.654 8  19673330.691    19673331.773    81680331.496 8  19673334.008
      -376.916        -293.150          53.000          49.800



 108891353.481 7  20384691.539    20384692.758    84693277.265 7  20384696.309
     -2819.118       -2192.657          46.500          45.400



 120578493.083 7  22532974.754    22532976.195    93783279.623 6  22532979.195
     -3882.756       -3019.938          43.500          41.400



 118224781.385 7  22077646.348    22077646.742    91952611.009 7  22077648.770
     -1722.109       -1339.433          46.900          42.200



 124292618.637 7                  23652056.578    96851240.91845  23652059.277
     -3473.258       -2706.409          42.100          30.200



 121540222.908 6  22736611.941    22736612.094    94531288.015 6  22736616.445
      1919.704        1493.054          37.700          37.800



 132112759.932 6                  25140198.492   102944950.23243  25140203.926
      1929.059        1503.231          40.200          19.000    98655573.065 6
  25140206.461        1440.594          39.400


 114354635.117 8  21377394.371    21377395.383    88942496.395 6  21377400.695
      3901.418        3034.434          48.100          39.100



 209584119.589 6                  39882531.016
         4.652                          36.600                   156507614.886 6
  39882527.684           3.245          39.900


 211922738.067 5                  40317759.109
          .703                          33.700



 211595019.104 6                  40265193.578
        38.820                          37.200



 16  1  1 21 17 30.0000000  0 28G25G32G24G17G02G15G12G06R14R13G14E14
                                E22E30E19S28S36R22R12R21R04G19R05G03
                                R23S27S25S20
 121196657.943 7                  23062932.844    94438891.26345  23062939.574
      3342.879        2604.892          42.700          31.400    90503938.306 8
  23062940.871        2496.361          48.900


 128843265.321 6                  24518081.617   100397460.28543  24518087.035
       218.230         170.254          40.800          23.200



 108973624.325 8                  20736993.953    84914572.67247  20737000.289
     -1452.961       -1131.998          53.000          46.100    81376469.537 9
  20737001.793       -1084.830          56.900


 120270630.489 7                  22886761.469    93717492.02345  22886765.016
     -2583.551       -2013.026          46.600          35.900



 130309398.786 6                  24797064.320   101539840.63144  24797066.781
      3281.844        2557.277          39.100          24.600



 135308248.629 5                  25748306.250   105435024.71242  25748311.051
     -3704.531       -2886.697          34.700          16.900



 106969255.529 8                  20355548.117    83352592.19447  20355551.750
      1385.836        1080.013          53.800          46.700



 121679852.671 7                  23154922.945    94815566.97245  23154930.387
      2539.938        1979.330          44.500          30.800    90864901.747 8
  23154932.586        1896.861          48.900


 121712983.981 5  22833045.637    22833048.523    94665683.246 5  22833052.488
      4018.501        3125.489          34.800          35.900



 103297926.381 7  19344384.516    19344386.023    80342834.551 8  19344389.094
      1244.675         968.064          47.300          49.300



 119681305.257 7                  22774584.133    93258137.41845  22774587.746
      1243.477         969.103          46.600          31.100



  99440062.872 8                  18922812.273
     -4444.316                          50.900                    74257245.524 8
  18922825.465       -3318.432          52.400    76194323.325 8  18922823.449
     -3404.995          52.600    75225742.532 9  18922824.680       -3361.711
        57.000
 132177345.055 8                  25152515.156
     -1266.465                          50.100                    98703895.015 8
  25152518.789        -945.619          50.600   101278768.582 8  25152515.977
      -970.281          50.000    99991335.406 9  25152517.598        -957.951
        54.900
 141374417.023 7                  26902666.672
     -2922.734                          44.000                   105571907.256 7
  26902671.375       -2182.576          43.300   108325943.406 7  26902668.984
     -2239.514          42.500   106948913.936 7  26902670.391       -2211.041
        47.400
 143627653.218 6                  27331432.711
     -2493.695                          37.500                   107254420.491 6
  27331436.828       -1862.001          41.900   110052354.681 6  27331434.203
     -1910.579          39.200   108653394.699 7  27331435.594       -1886.293
        44.900
 215361655.240 6                  40981959.531
         3.113                          38.900                   160821964.841 7
  40981940.164           2.167          43.900


 207966582.258 6                  39574730.156
        -3.422                          41.800                   155299622.223 6
  39574723.918          -1.369          38.800


 105029310.008 8  19675529.941    19675531.023    81689462.885 8  19675533.348
      -404.857        -314.899          53.500          49.700



 108976171.036 7  20400570.078    20400570.828    84759246.460 7  20400575.016
     -2834.822       -2204.865          46.300          45.300



 120695169.342 7  22554778.855    22554779.242    93874027.810 6  22554783.035
     -3895.191       -3029.599          43.700          41.200



 118276832.186 7  22087366.215    22087367.195    91993094.919 7  22087369.355
     -1747.101       -1358.837          46.300          42.600



 124396962.323 6                  23671913.109    96932547.66844  23671914.793
     -3482.727       -2713.767          41.300          28.900



 121483009.141 6  22725908.457    22725909.078    94486788.435 6  22725913.082
      1895.390        1474.164          38.100          39.700



 132055123.330 6                  25129230.406   102900038.67743  25129237.047
      1913.539        1491.284          36.500          18.300    98612532.848 6
  25129240.109        1429.158          38.200


 114237820.843 8  21355556.684    21355557.344    88851640.846 6  21355563.297
      3886.675        3022.965          48.500          39.800



 209583990.594 5                  39882505.797
         4.395                          35.500                   156507518.365 6
  39882502.934           3.038          40.300


 211922701.388 5                  40317339.000
         1.098                          33.300



 211593866.068 6                  40264973.734
        38.941                          36.400



 16  1  1 21 18  0.0000000  0 28G25G32G24G17G02G15G12G06R14R13G14E14
                                E22E30E19S28S36R22R12R21R04G19R05G03
                                R23S27S25S20
 121096473.684 7                  23043868.430    94360825.60745  23043874.816
      3336.082        2599.643          43.100          30.600    90429125.393 8
  23043876.289        2491.328          48.700


 128837014.529 6                  24516892.328   100392589.55843  24516896.477
       198.508         154.955          40.700          22.300



 109017472.494 8                  20745337.922    84948740.07347  20745344.555
     -1470.340       -1145.437          53.700          46.000    81409213.298 9
  20745345.945       -1097.707          56.600


 120348311.233 7                  22901543.547    93778022.47546  22901547.098
     -2595.141       -2022.052          45.800          36.100



 130210978.589 6                  24778335.945   101463149.60344  24778336.723
      3279.578        2555.508          38.700          24.400



 135419359.422 5                  25769449.617   105521604.52542  25769454.691
     -3702.949       -2885.315          32.800          15.600



 106927914.437 8                  20347681.141    83320378.35647  20347685.035
      1370.215        1067.951          53.500          46.800



 121603863.435 7                  23140463.195    94756354.58645  23140470.035
      2526.016        1968.507          44.500          31.900    90808156.547 8
  23140472.176        1886.485          49.700


 121592486.591 5  22810441.082    22810442.680    94571963.094 6  22810448.941
      4014.802        3122.613          34.400          37.100



 103260888.691 7  19337448.488    19337450.117    80314027.443 8  19337452.813
      1225.118         952.881          46.800          49.800



 119644283.196 7                  22767539.234    93229289.07045  22767542.563
      1224.680         954.593          46.700          31.700



  99573864.657 8                  18948274.016
     -4475.781                          50.800                    74357162.444 8
  18948287.223       -3341.899          52.400    76296846.767 8  18948285.297
     -3429.079          52.900    75326962.713 9  18948286.305       -3385.489
        56.900
 132215538.919 8                  25159782.922
     -1279.793                          50.700                    98732416.407 8
  25159786.977        -955.482          50.500   101308034.012 8  25159784.117
      -980.403          50.300   100020228.818 9  25159785.660        -967.945
        54.900
 141462145.883 7                  26919360.914
     -2925.789                          44.000                   105637419.059 7
  26919365.668       -2184.792          43.300   108393164.213 7  26919363.230
     -2241.791          43.700   107015280.241 7  26919364.691       -2213.287
        47.300
 143702582.026 6                  27345691.328
     -2501.820                          37.200                   107310373.814 6
  27345695.234       -1868.029          41.600   110109767.623 6  27345692.984
     -1916.760          40.200   108710077.824 7  27345693.766       -1892.398
        45.500
 215361561.869 6                  40981940.000
         2.781                          40.000                   160821895.205 7
  40981923.258           2.022          43.800


 207966684.274 7                  39574749.484
        -3.187                          42.100                   155299641.757 6
  39574742.379           -.599          37.900


 105041888.367 8  19677886.316    19677887.398    81699246.052 8  19677889.863
      -432.779        -336.611          53.200          49.700



 109061455.637 7  20416535.742    20416536.258    84825578.901 7  20416540.410
     -2850.347       -2216.919          46.000          45.300



 120812214.254 7  22576651.496    22576652.117    93965062.697 6  22576655.797
     -3907.396       -3039.093          43.300          41.100



 118329630.757 7  22097226.500    22097226.188    92034160.501 6  22097228.754
     -1771.970       -1378.215          46.600          41.400



 124501587.181 6                  23691822.336    97014073.52545  23691824.309
     -3492.207       -2721.027          41.500          30.000



 121426524.845 6  22715342.426    22715343.398    94442856.195 6  22715347.488
      1870.999        1455.217          37.200          38.500



 131997947.210 5                  25118349.617   102855485.81342  25118356.906
      1898.137        1479.302          35.100          14.800    98569836.352 6
  25118358.383        1417.652          38.900


 114121450.630 8  21333802.848    21333803.742    88761130.699 6  21333809.156
      3871.820        3011.416          49.100          39.200



 209583862.371 6                  39882481.750
         4.098                          36.100                   156507422.742 6
  39882478.395           3.381          40.300


 211922667.981 5                  40316902.281
         1.184                          34.100



 211592709.881 6                  40264750.297
        38.672                          37.300



 16  1  1 21 18 30.0000000  0 28G25G32G24G17G02G15G12G06R14R13G14E14
                                E22E30E19S28S36R22R12R21R04G19R05G03
                                R23S27S25S20
 120996492.040 7                  23024842.258    94282917.82544  23024848.578
      3329.410        2594.361          43.900          29.800    90354463.771 8
  23024850.930        2486.259          48.800


 128831351.657 6                  24515814.063   100388176.89943  24515818.824
       178.977         139.685          41.100          21.100



 109061837.348 8                  20753780.273    84983310.09447  20753787.039
     -1487.387       -1158.815          53.100          46.000    81442342.901 9
  20753788.547       -1110.537          56.400


 120426338.533 7                  22916391.727    93838822.96446  22916395.465
     -2606.586       -2031.006          46.000          36.000



 130112627.285 6                  24759619.984   101386512.24143  24759621.578
      3277.289        2553.699          37.200          20.900



 135530415.545 5                  25790582.273   105608141.78842  25790587.555
     -3700.828       -2883.836          31.500          14.800



 106887038.049 9                  20339902.828    83288526.62147  20339906.594
      1354.848        1055.893          54.400          46.300



 121528293.497 7                  23126083.008    94697468.92145  23126089.441
      2512.020        1957.574          44.800          30.900    90751724.459 8
  23126091.762        1876.005          49.500


 121472101.609 5  22787857.410    22787858.656    94478330.350 5  22787864.074
      4010.975        3119.636          35.500          35.300



 103224437.663 7  19330622.324    19330623.953    80285676.638 8  19330626.984
      1205.537         937.641          47.000          49.400



 119607820.213 7                  22760601.172    93200876.36945  22760604.289
      1206.168         940.057          47.200          31.300



  99708605.425 8                  18973914.414
     -4506.852                          50.900                    74457780.552 8
  18973927.770       -3365.163          52.400    76400089.696 8  18973925.426
     -3452.953          52.300    75428893.229 9  18973926.660       -3409.053
        56.800
 132254128.106 8                  25167126.320
     -1292.824                          50.100                    98761233.008 8
  25167130.324        -965.297          50.500   101337602.354 8  25167127.465
      -990.481          50.200   100049421.290 9  25167128.984        -977.894
        54.900
 141549963.900 7                  26936072.148
     -2928.754                          43.600                   105702997.448 7
  26936076.609       -2187.034          42.700   108460453.337 7  26936074.734
     -2244.084          43.100   107081713.997 7  26936075.832       -2215.558
        47.300
 143777751.728 5                  27359995.109
     -2509.719                          35.400                   107366506.956 6
  27359999.254       -1873.975          40.500   110167365.139 6  27359996.723
     -1922.858          40.700   108766943.161 7  27359998.293       -1898.417
        44.900
 215361468.564 6                  40981923.078
         3.219                          38.900                   160821825.399 7
  40981904.672           2.394          43.400


 207966782.989 7                  39574768.578
        -3.316                          42.300                   155299856.482 6
  39574761.566           -.638          37.800


 105055303.723 8  19680398.797    19680400.469    81709680.202 8  19680402.324
      -460.658        -358.281          53.100          49.400



 109147205.231 7  20432588.422    20432588.820    84892273.037 7  20432593.359
     -2865.802       -2228.947          45.800          45.100



 120929624.013 7  22598593.207    22598593.828    94056381.406 6  22598596.520
     -3919.495       -3048.511          43.900          40.700



 118383174.367 7  22107226.109    22107225.563    92075805.522 7  22107228.188
     -1796.732       -1397.468          46.200          42.100



 124606490.510 6                  23711784.469    97095816.36644  23711786.398
     -3501.402       -2728.224          41.600          28.700



 121370772.351 6  22704912.477    22704915.094    94399493.144 6  22704917.242
      1846.611        1436.241          37.700          39.400



 131941233.733 5                  25107558.758   102811293.57142  25107563.926
      1882.766        1467.219          35.700          14.800    98527485.343 6
  25107566.402        1406.102          38.600


 114005527.888 8  21312132.012    21312133.258    88670968.577 6  21312138.797
      3856.843        2999.762          48.500          39.400



 209583733.152 6                  39882458.016
         4.430                          36.000                   156507326.457 6
  39882454.145           3.147          39.600


 211922653.940 5                  40316477.203
          .832                          34.800



 211591549.059 6                  40264537.484
        38.602                          37.000



 16  1  1 21 19  0.0000000  0 27G25G32G24G17G02G15G12G06R14R13G14E14
                                E22E30E19S28S36R22R12R21R04G19R05R23
                                S27S25S20
 120896714.564 7                  23005855.047    94205169.12745  23005862.156
      3322.457        2589.048          44.200          31.200    90279954.610 8
  23005864.039        2481.173          49.100


 128826276.833 6                  24514847.867   100384222.42843  24514852.578
       159.336         124.450          40.900          22.000



 109106718.169 8                  20762320.773    85018282.16047  20762327.207
     -1504.707       -1172.208          53.600          46.300    81475857.801 9
  20762328.715       -1123.372          56.700


 120504710.278 7                  22931305.141    93899891.85945  22931308.570
     -2618.090       -2039.936          46.000          35.800



 130014347.382 6                  24740918.109   101309930.54843  24740919.715
      3274.746        2551.753          36.400          19.300



 135641414.873 5                  25811705.633   105694634.72142  25811709.672
     -3699.121       -2882.370          33.100          13.900



 106846627.384 9                  20332212.875    83257037.78847  20332216.578
      1339.180        1043.764          54.100          46.500



 121453145.571 7                  23111781.828    94638912.09845  23111789.016
      2497.730        1946.551          45.100          31.900    90695607.509 8
  23111791.395        1865.446          49.300


 121351831.162 6  22765294.793    22765296.039    94384786.651 5  22765301.621
      4007.104        3116.638          37.400          35.800



 103188575.186 7  19323906.254    19323908.000    80257783.612 8  19323911.168
      1185.905         922.362          47.200          50.200



 119571917.697 7                  22753768.930    93172900.37545  22753772.883
      1187.285         925.480          47.700          31.300



  99844277.161 8                  18999731.813
     -4537.848                          50.800                    74559093.862 8
  18999745.199       -3388.250          51.900    76504045.960 8  18999742.809
     -3476.638          52.200    75531528.018 9  18999744.129       -3432.447
        56.800
 132293111.522 8                  25174544.508
     -1306.039                          50.300                    98790343.996 8
  25174548.496        -975.101          50.700   101367472.764 8  25174545.961
     -1000.542          50.000   100078911.984 9  25174547.371        -987.823
        54.800
 141637870.348 7                  26952800.211
     -2931.871                          44.100                   105768641.861 7
  26952804.629       -2189.238          43.300   108527810.214 7  26952802.801
     -2246.339          43.300   107148214.643 7  26952803.945       -2217.785
        47.300
 143853160.446 6                  27374344.813
     -2517.543                          37.600                   107422818.651 6
  27374349.031       -1879.920          40.400   110225145.804 6  27374346.777
     -1928.959          40.000   108823989.336 7  27374347.809       -1904.443
        44.300
 215361374.741 6                  40981904.828
         2.945                          39.900                   160821754.977 7
  40981887.125           2.165          43.500


 207966880.712 7                  39574787.469
        -3.285                          42.000                   155299873.286 6
  39574781.160          -1.047          38.000


 105069554.634 8  19683069.176    19683070.023    81720764.259 8  19683072.816
      -488.492        -379.927          53.000          49.500



 109233418.407 7  20448726.969    20448728.188    84959327.726 7  20448732.000
     -2881.201       -2240.940          45.700          45.200



 121047394.520 7  22620600.379    22620601.469    94147980.640 6  22620604.395
     -3931.466       -3057.800          43.500          40.700



 118437460.859 7  22117362.129    22117363.227    92118028.341 6  22117364.609
     -1821.469       -1416.712          46.600          41.800



 124711669.395 7                  23731798.672    97177773.92244  23731801.824
     -3510.527       -2735.356          42.600          28.800



 121315754.138 6  22694620.934    22694621.789    94356701.201 6  22694624.945
      1822.071        1417.183          37.700          40.100



 113890056.197 8  21290545.957    21290547.086    88581157.251 6  21290552.824
      3841.713        2988.006          48.600          39.600



 209583602.220 5                  39882434.906
         4.184                          35.800                   156507228.580 6
  39882429.090           3.092          39.100


 211922629.367 5                  40316052.734
          .219                          34.800



 211590388.333 6                  40264308.484
        38.398                          36.100



 16  1  1 21 19 30.0000000  0 27G25G32G24G17G02G15G12G06R14R13G14E14
                                E22E30E19S28S36R22R12R21R04G19R05R23
                                S27S25S20
 120797142.728 7                  22986907.906    94127580.69545  22986914.461
      3315.871        2583.758          43.900          31.300    90205599.030 8
  22986916.109        2476.103          49.000


 128821790.150 6                  24513993.602   100380726.26743  24513999.484
       139.895         109.164          37.900          20.900



 109152114.057 8                  20770959.289    85053655.58247  20770966.199
     -1521.672       -1185.549          52.800          45.800    81509757.330 9
  20770967.590       -1136.151          56.200


 120583424.010 7                  22946284.141    93961227.23545  22946287.918
     -2629.336       -2048.748          45.500          35.700



 129916141.420 6                  24722229.375   101233406.42743  24722230.699
      3272.215        2549.884          36.100          20.400



 135752354.529 5                  25832818.016   105781081.29552  25832821.051
     -3696.871                          33.500          14.800



 106806683.080 8                  20324611.781    83225912.35847  20324615.598
      1323.836        1031.698          53.700          46.900



 121378422.396 7                  23097562.367    94580686.27645  23097570.043
      2483.840        1935.564          44.500          31.800    90639807.764 8
  23097572.066        1854.911          49.900


 121231677.801 6  22742754.996    22742756.477    94291334.001 5  22742761.336
      4003.231        3113.654          38.900          34.900



 103153303.165 7  19317301.004    19317303.336    80230349.832 8  19317305.500
      1166.251         907.075          47.000          49.600



 119536576.876 7                  22747043.539    93145362.07345  22747047.512
      1168.770         910.908          47.200          32.200



  99980871.719 8                  19025724.898
     -4568.223                          51.200                    74661096.295 8
  19025738.289       -3411.073          52.000    76608709.324 8  19025735.758
     -3500.056          51.800    75634860.915 9  19025737.195       -3455.565
        56.800
 132332488.059 8                  25182037.781
     -1318.922                          49.800                    98819748.552 8
  25182041.363        -984.845          50.200   101397644.396 8  25182038.879
     -1010.536          50.300   100108700.081 9  25182040.355        -997.687
        54.900
 141725864.505 7                  26969544.953
     -2934.422                          43.300                   105834351.766 7
  26969549.879       -2191.340          43.800   108595234.310 7  26969547.301
     -2248.510          43.000   107214781.643 7  26969548.727       -2219.917
        47.700
 143928806.219 6                  27388740.500
     -2525.293                          38.800                   107479307.369 6
  27388744.250       -1885.761          40.400   110283108.151 6  27388741.152
     -1934.952          39.700   108881214.869 7  27388742.883       -1910.353
        44.200
 215361280.789 6                  40981888.328
         3.426                          39.900                   160821685.363 7
  40981869.219           2.516          43.600


 207966980.263 7                  39574806.984
        -3.457                          42.500                   155299891.678 6
  39574799.035           -.778          38.900


 105084640.310 8  19685894.852    19685896.289    81732497.561 8  19685898.348
      -516.224        -401.511          53.000          49.400



 109320093.404 7  20464953.461    20464954.211    85026741.584 7  20464958.352
     -2896.519       -2252.844          46.000          45.100



 121165521.883 7  22642675.473    22642677.266    94239857.450 6  22642680.371
     -3943.228       -3066.947          44.300          41.500



 118492486.838 7  22127638.172    22127638.328    92160826.313 7  22127641.141
     -1846.054       -1435.836          46.900          42.200



 124817120.927 7                  23751865.695    97259943.94444  23751868.430
     -3519.258       -2742.382          42.800          29.400



 121261472.784 6  22684465.867    22684467.195    94314482.432 6  22684470.977
      1797.535        1398.083          37.400          39.400



 113775039.638 8  21269045.082    21269045.859    88491699.948 6  21269051.438
      3826.601        2976.216          49.000          39.400



 209583470.877 6                  39882408.656
         4.164                          36.000                   156507130.657 6
  39882405.184           3.081          40.200


 211922614.726 5                  40315617.703
          .785                          34.300



 211589224.502 6                  40264081.297
        39.082                          36.600



 16  1  1 21 20  0.0000000  0 27G25G32G24G17G02G15G12G06R14R13G14E14
                                E22E30E19S28S36R22R12R21R04G19R05R23
                                S27S25S20
 120697778.170 7                  22967999.336    94050153.77145  22968006.391
      3308.676        2578.284          45.300          31.400    90131398.220 8
  22968007.629        2470.865          49.300


 128817892.031 6                  24513252.078   100377688.74243  24513258.160
       120.160          93.902          39.900          22.800



 109198024.387 8                  20779695.859    85089429.86147  20779702.496
     -1538.836       -1198.904          52.300          46.100    81544041.012 9
  20779704.004       -1148.946          56.600


 120662477.731 7                  22961327.547    94022827.52745  22961331.410
     -2640.762       -2057.596          45.100          35.400



 129818012.175 6                  24703556.727   101156942.09543  24703557.852
      3269.688        2547.832          37.100          19.300



 135863232.77215                  25853917.820
     -3694.437                          33.500



 106767205.945 8                  20317099.273    83195150.95747  20317103.086
      1308.109        1019.528          52.700          46.800



 121304126.759 7                  23083424.477    94522793.58545  23083431.832
      2469.328        1924.365          44.500          31.900    90584327.270 8
  23083433.914        1844.186          49.400


 121111643.579 6  22720236.059    22720237.891    94197974.071 5  22720242.891
      3999.210        3110.498          36.400          35.700



 103118623.261 7  19310805.832    19310807.930    80203376.568 8  19310810.590
      1146.435         891.685          47.000          49.700



 119501799.556 7                  22740426.344    93118262.86045  22740429.711
      1149.766         896.224          46.200          31.800



 100118381.229 8                  19051891.953
     -4598.832                          50.600                    74763781.964 8
  19051905.668       -3433.791          52.300    76714073.756 8  19051903.043
     -3523.365          52.000    75738885.969 9  19051904.449       -3478.583
        56.700
 132372256.643 8                  25189605.352
     -1332.105                          50.400                    98849445.870 8
  25189609.168        -994.613          50.600   101428116.432 8  25189606.590
     -1020.562          49.900   100138784.759 9  25189608.063       -1007.589
        54.800
 141813945.872 7                  26986305.984
     -2937.437                          43.100                   105900126.805 7
  26986311.336       -2193.517          43.700   108662725.223 7  26986308.758
     -2250.745          43.500   107281414.623 7  26986310.152       -2222.128
        47.900
 144004687.306 6                  27403180.453
     -2533.141                          41.100                   107535971.843 6
  27403183.953       -1891.613          39.700   110341250.779 6  27403180.246
     -1940.957          38.600   108938618.424 7  27403182.180       -1916.288
        43.400
 215361186.569 6                  40981869.063
         3.188                          39.000                   160821614.531 7
  40981850.938           2.517          43.000


 207967079.395 7                  39574825.125
        -3.297                          42.500                   155299909.76116
  39574818.605          -1.414          38.200


 105100559.313 8  19688877.449    19688878.531    81744879.007 8  19688881.016
      -544.028        -423.124          52.500          49.200



 109407228.585 7  20481265.000    20481265.750    85094513.385 7  20481270.086
     -2911.912       -2264.824          46.000          45.000



 121284002.305 7  22664816.223    22664817.195    94332008.894 6  22664820.520
     -3954.973       -3076.086          43.800          40.700



 118548249.908 7  22138052.359    22138052.398    92204197.587 6  22138054.934
     -1870.583       -1454.878          46.000          41.900



 124922842.744 7                  23771984.227    97342324.55644  23771986.719
     -3528.316       -2749.360          43.500          28.600



 121207931.204 6  22674449.996    22674450.383    94272838.985 6  22674454.090
      1772.775        1378.829          38.600          38.300



 113660481.289 8  21247629.105    21247630.117    88402599.011 6  21247635.613
      3811.202        2964.255          48.700          40.300



 209583338.333 6                  39882383.922
         4.664                          36.100                   156507031.448 6
  39882379.863           3.495          40.000


 211922585.724 5                  40315186.234
          .746                          33.700



 211588056.749 6                  40263869.922
        39.195                          37.300



 16  1  1 21 20 30.0000000  0 27G25G32G24G17G02G15G12G06R14R13G14E14
                                E22E30E19S28S36R22R12R21R04G19R05R23
                                S27S25S20
 120598622.447 7                  22949130.188    93972889.56045  22949136.789
      3301.727        2572.842          44.600          32.200    90057353.353 8
  22949138.379        2465.639          49.100


 128814582.500 7                  24512623.336   100375109.84743  24512628.535
       100.543          78.555          42.000          22.300



 109244447.962 8                  20788529.977    85125604.07547  20788536.402
     -1555.906       -1212.245          52.800          45.600    81578707.963 9
  20788537.969       -1161.731          56.300


 120741869.365 7                  22976435.305    94084691.13745  22976439.004
     -2651.922       -2066.340          45.500          34.700



 129719961.926 6                  24684897.883   101080539.27843  24684899.297
      3266.980        2545.754          38.800          20.900



 135974051.52915                  25875005.234
     -3692.242                          31.900



 106728197.062 8                  20309675.977    83164754.42247  20309680.359
      1292.508        1007.327          53.300          46.700



 121230261.406 7                  23069368.703    94465236.15645  23069375.961
      2455.074        1913.173          45.100          31.400    90529168.071 8
  23069377.754        1833.462          49.500


 120991731.315 6  22697741.582    22697742.594    94104708.934 5  22697748.137
      3995.047        3107.289          37.400          34.700



 103084537.420 7  19304423.176    19304425.039    80176865.365 8  19304427.863
      1126.636         876.246          45.900          50.000



 119467586.710 7                  22733914.820    93091603.49845  22733919.039
      1131.082         881.557          47.900          31.900



 100256797.541 8                  19078231.688
     -4628.883                          50.500                    74867144.796 8
  19078245.324       -3456.285          52.100    76820133.013 8  19078242.746
     -3546.455          52.000    75843597.009 9  19078244.180       -3501.365
        56.700
 132412416.221 8                  25197247.695
     -1345.035                          49.900                    98879435.162 8
  25197251.434       -1004.337          50.100   101458888.048 8  25197248.762
     -1030.534          50.500   100169165.214 9  25197250.180       -1017.438
        54.800
 141902113.798 7                  27003084.203
     -2940.207                          43.000                   105965966.468 7
  27003089.160       -2195.702          43.700   108730282.446 7  27003086.578
     -2252.979          43.400   107348113.065 8  27003087.980       -2224.339
        48.200
 144080801.815 6                  27417664.352
     -2540.891                          41.500                   107592810.590 6
  27417667.555       -1897.403          39.400   110399572.327 6  27417665.023
     -1946.902          38.900   108996198.567 7  27417666.723       -1922.159
        43.300
 215361093.278 6                  40981851.641
         3.039                          39.400                   160821544.823 7
  40981833.234           2.114          43.900


 207967179.272 6                  39574843.969
        -3.156                          41.900                   155300131.591 6
  39574836.840           -.596          37.900


 105117310.784 8  19692015.203    19692016.523    81757907.939 8  19692018.555
      -571.760        -444.709          52.900          49.500



 109494822.081 7  20497662.859    20497663.727    85162641.651 7  20497667.977
     -2927.164       -2276.702          46.000          45.200



 121402831.805 7  22687022.645    22687024.086    94424431.833 6  22687026.605
     -3966.559       -3085.108          43.100          39.600



 118604747.418 7  22148602.457    22148603.438    92248140.094 6  22148604.977
     -1895.017       -1473.916          45.000          41.700



 125028831.956 7                  23792153.391    97424913.53744  23792155.859
     -3537.230       -2756.292          42.800          28.700



 121155131.900 6  22664574.059    22664573.859    94231772.867 6  22664577.551
      1748.041        1359.557          38.700          38.100



 113546385.550 8  21226300.074    21226301.906    88313857.877 6  21226306.332
      3795.706        2952.215          49.400          39.400



 209583205.232 6                  39882356.484
         4.664                          36.300                   156506931.924 6
  39882354.207           3.501          40.300


 211922564.389 5                  40314752.188
          .316                          34.800



 211586886.097 6                  40263642.313
        39.156                          36.800



 16  1  1 21 21  0.0000000  0 27G25G32G24G17G02G12G06R14R13G14E14E22
                                E30E19S28S36R22R12R21R04G19R05G03R23
                                S27S25S20
 120499677.127 7                  22930301.820    93895789.31245  22930308.492
      3294.734        2567.363          43.400          31.400    89983465.623 8
  22930309.555        2460.389          49.200


 128811861.753 7                  24512105.625   100372989.86043  24512110.074
        80.883          63.278          42.300          23.600



 109291383.603 8                  20797461.406    85162177.30047  20797468.102
     -1573.055       -1225.525          51.100          46.200    81613757.305 9
  20797469.664       -1174.458          56.400


 120821597.212 7                  22991606.734    94146816.73946  22991610.789
     -2663.207       -2075.050          45.300          36.300



 129621993.488 6                  24666255.063   101004200.23743  24666256.121
      3264.234        2543.609          38.500          21.300



 106689656.885 8                  20302342.422    83134723.11847  20302346.559
      1276.887         995.157          53.800          46.800



 121156829.156 7                  23055394.914    94408016.19945  23055401.977
      2440.445        1901.890          44.700          31.600    90474332.279 8
  23055403.883        1822.644          49.500


 120871943.332 6  22675269.703    22675270.594    94011540.497 5  22675275.672
      3990.906        3104.043          37.400          33.500



 103051047.301 7  19298151.500    19298153.008    80150817.486 8  19298156.125
      1106.734         860.800          47.200          49.600



 119433939.619 7                  22727512.234    93065384.98645  22727516.516
      1112.086         866.834          46.900          31.200



 100396112.669 8                  19104742.445
     -4658.621                          50.500                    74971178.816 8
  19104756.012       -3478.534          52.400    76926880.964 8  19104753.617
     -3569.274          52.100    75948988.002 9  19104755.016       -3523.907
        56.600
 132452965.654 8                  25204963.727
     -1358.074                          50.500                    98909715.587 8
  25204967.805       -1014.020          50.500   101489958.403 8  25204965.223
     -1040.476          49.500   100199840.602 9  25204966.602       -1027.249
        54.800
 141990367.556 7                  27019877.820
     -2943.094                          42.400                   106031870.238 7
  27019883.309       -2197.802          43.900   108797905.444 7  27019880.824
     -2255.134          43.900   107414876.450 8  27019882.199       -2226.464
        48.500
 144157147.855 6                  27432192.727
     -2548.590                          41.800                   107649822.245 6
  27432195.727       -1903.133          38.800   110458071.262 6  27432192.488
     -1952.783          38.000   109053953.866 7  27432194.855       -1927.965
        42.700
 215360998.791 6                  40981833.953
         3.145                          39.500                   160821474.218 7
  40981816.133           2.242          43.500


 207967277.578 7                  39574863.297
        -3.320                          42.100                   155300149.426 6
  39574855.887           -.596          38.000


 105134893.212 8  19695309.152    19695310.352    81771583.149 8  19695312.754
      -599.448        -466.226          52.900          49.400



 109582872.407 7  20514145.375    20514146.594    85231125.218 7  20514150.602
     -2942.311       -2288.471          45.800          44.800



 121522006.569 7  22709291.984    22709294.133    94517123.312 6  22709297.332
     -3977.982       -3094.009          42.600          40.200



 118661976.312 7  22159288.520    22159288.914    92292651.474 7  22159291.992
     -1919.397       -1492.852          46.000          42.100



 125135086.028 6                  23812373.086    97507708.91744  23812375.348
     -3546.152       -2763.179          41.600          29.100



 121103077.282 6  22654835.891    22654837.102    94191285.953 6  22654839.227
      1723.106        1340.195          38.700          39.400



 131664396.531 5                  25054931.953
      1804.352                          35.700                    98320965.399 6
  25054941.848        1347.556          39.400


 113432755.636 8  21205058.512    21205059.055    88225479.065 6  21205064.926
      3780.140        2940.102          48.900          39.300



 209583072.470 6                  39882332.797
         4.273                          36.200                   156506833.077 6
  39882327.895           3.274          40.900


 211922552.760 5                  40314324.781
         -.016                          34.000



 211585709.542 6                  40263412.250
        39.027                          36.000



 16  1  1 21 21 30.0000000  0 27G25G32G24G17G02G12G06R14R13G14E14E22
                                E30E19S28S36R22R12R21R04G19R05G03R23
                                S27S25S20
 120400943.734 7                  22911513.039    93818854.20145  22911520.254
      3287.367        2561.803          43.200          32.100    89909736.146 8
  22911521.375        2455.060          48.900


 128809729.967 6                  24511699.094   100371328.67743  24511704.871
        61.133          47.959          41.600          22.900



 109338830.825 8                  20806490.242    85199149.16047  20806496.863
     -1590.309       -1238.828          52.500          46.300    81649188.670 9
  20806498.254       -1187.207          56.300


 120901658.654 7                  23006841.438    94209202.27845  23006846.121
     -2674.488       -2083.711          45.200          35.800



 129524109.721 6                  24647629.273   100927927.19143  24647630.738
      3261.301        2541.310          38.800          21.700



 106651586.566 8                  20295097.820    83105057.93447  20295101.906
      1260.988         982.912          52.800          46.700



 121083832.631 7                  23041503.953    94351135.77545  23041511.363
      2425.773        1890.516          45.100          32.300    90419821.873 8
  23041513.273        1811.748          49.000


 120752281.701 6  22652821.195    22652822.086    93918470.350 5  22652827.930
      3986.637        3100.714          36.900          35.300



 103018154.794 7  19291991.910    19291993.539    80125234.415 8  19291996.375
      1086.746         845.248          46.300          49.900



 119400859.931 7                  22721217.141    93039608.60645  22721221.551
      1092.930         852.064          47.300          31.100



 100536318.509 8                  19131422.938
     -4688.465                          50.600                    75075877.987 8
  19131436.313       -3500.646          51.600    77034311.415 8  19131433.965
     -3591.965          52.400    76055052.807 9  19131435.355       -3546.303
        56.500
 132493903.810 8                  25212753.992
     -1371.258                          50.700                    98940286.289 8
  25212757.898       -1023.714          50.400   101521326.601 8  25212755.367
     -1050.418          50.200   100230810.053 9  25212756.770       -1037.066
        54.900
 142078706.590 7                  27036688.242
     -2946.254                          42.100                   106097837.671 7
  27036694.039       -2199.986          44.200   108865593.781 7  27036691.508
     -2257.379          44.000   107481704.335 8  27036692.703       -2228.679
        48.500
 144233723.576 7                  27446764.992
     -2556.379                          42.800                   107707005.449 6
  27446767.492       -1908.847          37.700   110516746.131 6  27446765.102
     -1958.640          38.600   109111882.895 7  27446766.246       -1933.740
        42.200
 215360904.758 6                  40981815.469
         2.832                          39.200                   160821404.342 7
  40981797.789           2.060          43.700


 207967378.270 7                  39574882.906
        -3.707                          42.500                   155300168.436 6
  39574875.168           -.643          38.400


 105153305.560 8  19698758.523    19698759.844    81785903.872 8  19698761.996
      -627.102        -487.746          53.200          49.800



 109671377.702 7  20530714.008    20530714.875    85299962.662 7  20530718.992
     -2957.514       -2300.278          45.800          44.900



 121641522.719 7  22731627.113    22731628.203    94610080.326 6  22731632.449
     -3989.338       -3102.823          43.400          41.000



 118719933.749 7  22170112.480    22170113.695    92337729.470 6  22170114.688
     -1943.654       -1511.727          45.500          41.800



 125241601.900 7                  23832642.797    97590708.29745  23832644.992
     -3554.992       -2769.934          43.500          30.200



 121051770.031 6  22645237.250    22645239.281    94151380.307 6  22645241.203
      1698.137        1320.768          38.600          40.200



 131610505.572 5                  25044677.039   102553788.67142  25044683.148
      1788.504        1393.778          35.100          16.900    98280722.078 6
  25044685.859        1335.696          38.600


 113319595.691 8  21183904.098    21183905.344    88137465.785 6  21183910.699
      3764.362        2927.833          49.100          38.900



 209582937.711 5                  39882306.781
         4.379                          35.200                   156506732.520 6
  39882303.051           3.297          40.600


 211922540.670 5                  40313878.000
          .223                          33.700



 211584530.738 6                  40263193.938
        39.051                          36.600



 16  1  1 21 22  0.0000000  0 26G25G32G24G17G02G12G06R14R13G14E14E22
                                E30E19S28S36R22R12R21R04G19R05G03R23
                                S27S20
 120302423.807 7                  22892765.273    93742085.44645  22892772.840
      3280.328        2556.230          43.700          32.000    89836166.076 8
  22892773.785        2449.722          48.900


 128808186.995 6                  24511405.992   100370126.32644  24511411.391
        41.629          32.674          41.300          24.800



 109386788.224 8                  20815616.102    85236518.56147  20815622.703
     -1607.121       -1252.087          51.200          45.800    81685001.013 9
  20815624.387       -1199.913          56.400


 120982051.370 7                  23022140.898    94271845.94745  23022144.188
     -2685.270       -2092.284          45.300          35.700



 129426312.807 6                  24629018.477   100851721.80843  24629020.723
      3258.391        2539.030          37.200          21.700



 106613986.803 8                  20287942.656    83075759.41847  20287946.652
      1245.426         970.674          53.000          46.600



 121011274.614 7                  23027696.453    94294597.04845  23027704.148
      2411.121        1879.067          43.700          31.600    90365638.928 8
  23027706.055        1800.777          49.800


 120632748.559 6  22630397.551    22630399.500    93825500.115 5  22630403.813
      3982.237        3097.301          36.400          34.700



 102985861.218 7  19285945.188    19285946.344    80100117.199 8  19285949.508
      1066.742         829.686          46.500          49.800



 119368348.564 7                  22715030.953    93014275.08545  22715034.258
      1074.227         837.282          46.800          31.700



 100677407.001 8                  19158271.289
     -4717.570                          50.900                    75181236.279 8
  19158284.262       -3522.525          51.300    77142418.177 8  19158282.012
     -3614.415          51.700    76161785.336 9  19158283.395       -3568.469
        56.400
 132535229.539 8                  25220618.234
     -1384.051                          50.300                    98971146.411 8
  25220622.012       -1033.360          50.700   101552991.764 8  25220619.480
     -1060.316          50.400   100262072.698 9  25220620.914       -1046.842
        54.800
 142167130.053 6                  27053515.117
     -2948.836                          41.500                   106163868.151 7
  27053520.477       -2202.046          45.100   108933346.795 7  27053517.570
     -2259.483          44.100   107548596.078 8  27053518.953       -2230.764
        49.000
 144310527.023 6                  27461379.484
     -2563.996                          40.200                   107764358.668 6
  27461383.004       -1914.521          37.600   110575595.586 6  27461379.020
     -1964.463          37.200   109169984.232 6  27461382.086       -1939.492
        41.600
 215360811.933 6                  40981798.453
         2.711                          38.500                   160821334.944 7
  40981779.953           2.063          43.700


 207967479.576 6                  39574901.047
        -3.367                          41.700                   155300187.01816
  39574894.340           -.530          37.900


 105172546.252 8  19702362.918    19702364.000    81800868.851 8  19702366.262
      -654.693        -509.208          53.300          49.200



 109760336.018 7  20547367.922    20547368.789    85369152.450 7  20547372.465
     -2972.561       -2311.990          45.600          45.300



 121761376.238 7  22754025.574    22754026.195    94703299.739 6  22754029.879
     -4000.526       -3111.537          43.000          39.900



 118778616.786 7  22181071.184    22181072.164    92383371.849 7  22181074.375
     -1967.811       -1530.512          46.100          42.100



 125348376.593 7                  23852961.047    97673909.35044  23852963.227
     -3563.434       -2776.604          43.400          29.800



 121001212.575 6  22635779.238    22635779.859    94112057.867 6  22635783.539
      1673.122        1301.304          39.300          40.300



 131557092.823 5                  25034512.680   102512168.43842  25034519.539
      1772.316        1381.259          33.900          16.900    98240836.069 7
  25034521.020        1323.716          42.000


 113206909.115 8  21162838.559    21162839.805    88049820.660 6  21162845.230
      3748.534        2915.527          49.100          39.400



 209582803.137 5                  39882281.625
         4.520                          34.700                   156506631.974 6
  39882277.168           3.355          39.800


 211583350.247 5                  40262960.047
        39.348                          35.800



 16  1  1 21 22 30.0000000  0 27G25G32G24G17G02G12G06R14R13G14E14E22
                                E30E19S28S36R22R12R21R04G19R05G03R23
                                S27S25S20
 120204118.213 7                  22874058.656    93665483.67145  22874065.984
      3273.172        2550.697          42.500          32.100    89762756.047 8
  22874066.754        2444.416          49.500


 128807232.437 6                  24511224.492   100369382.48943  24511228.855
        21.859          17.406          40.300          22.200



 109435254.120 8                  20824839.227    85274284.19647  20824845.664
     -1624.121       -1265.249          52.400          45.600    81721193.081 9
  20824847.289       -1212.526          56.400


 121062772.882 7                  23037501.328    94334745.82445  23037505.137
     -2696.352       -2100.777          45.500          35.700



 129328605.089 6                  24610425.414   100775585.93343  24610427.316
      3255.465        2536.736          36.900          21.700



 106576857.337 9                  20280877.219    83046827.36447  20280880.801
      1229.688         958.489          54.200          47.000



 120939157.081 7                  23013972.969    94238401.58045  23013980.168
      2396.453        1867.630          43.900          31.000    90311784.936 8
  23013982.250        1789.808          49.400


 120513345.791 6  22607997.438    22607998.328    93732631.329 5  22608003.801
      3977.964        3093.993          36.900          34.600



 102954167.838 7  19280009.340    19280011.203    80075466.788 8  19280013.934
      1046.744         814.147          47.000          49.600



 119336405.957 7                  22708952.633    92989384.73845  22708956.297
      1055.137         822.519          45.500          31.800



 100819369.412 8                  19185285.734
     -4746.680                          50.600                    75287247.173 8
  19185298.996       -3544.144          51.500    77251194.570 8  19185296.746
     -3636.600          51.300    76269178.979 9  19185298.039       -3590.375
        56.300
 132576940.999 8                  25228555.641
     -1396.934                          49.600                    99002294.585 8
  25228559.289       -1042.904          50.100   101584952.502 8  25228556.852
     -1070.111          49.900   100293627.149 9  25228558.289       -1056.508
        54.800
 142255636.777 7                  27070357.281
     -2951.699                          42.000                   106229960.796 7
  27070362.836       -2204.087          44.600   109001163.612 7  27070359.977
     -2261.590          44.400   107615550.810 8  27070361.387       -2232.832
        49.000
 144387555.649 6                  27476037.617
     -2571.426                          40.700                   107821880.045 5
  27476040.324       -1920.070          34.900   110634617.468 6  27476038.871
     -1970.154          37.100   109228255.862 6  27476039.652       -1945.112
        40.600
 215360717.565 6                  40981780.375
         2.797                          38.700                   160821264.238 7
  40981761.078           2.209          43.800


 207967578.652 6                  39574920.422
        -3.512                          41.300                   155300403.761 6
  39574913.504           -.689          37.900


 105192613.418 8  19706122.031    19706123.352    81816476.662 8  19706125.484
      -682.223        -530.633          53.100          49.600



 109849745.021 7  20564105.133    20564106.000    85438692.764 7  20564110.188
     -2987.521       -2323.650          45.400          45.900



 121881562.458 7  22776484.684    22776484.250    94796777.865 6  22776489.293
     -4011.546       -3120.083          43.000          40.900



 118838022.007 7  22192165.188    22192164.875    92429575.909 7  22192167.883
     -1991.784       -1549.164          45.800          42.500



 125455406.954 7                  23873328.063    97757309.62944  23873330.328
     -3572.035       -2783.197          43.000          29.700



 120951406.433 6  22626461.871    22626462.609    94073319.731 6  22626466.617
      1648.095        1281.845          39.500          40.200



 131504159.543 6                  25024440.594   102470921.73542  25024446.590
      1756.156        1368.877          36.300          17.800    98201307.996 7
  25024448.715        1311.813          46.000


 113094699.157 8  21141862.262    21141862.922    87962546.270 6  21141868.789
      3732.621        2903.158          49.000          39.700



 209582667.721 5                  39882254.313
         4.219                          35.800                   156506530.817 6
  39882251.684           3.490          40.000


 211848960.096 5                  40313039.703
       -19.004                          33.800



 211582165.624 6                  40262744.922
        39.516                          36.500



 16  1  1 21 23  0.0000000  0 27G25G32G24G17G02G12G06R14R13G14E14E22
                                E30E19S28S36R22R12R21R04G19R05G03R23
                                S27S25S20
 120106028.870 7                  22855392.813    93589050.42945  22855399.758
      3265.973        2545.041          42.900          31.900    89689507.529 8
  22855400.938        2439.001          49.500


 128806866.384 6                  24511154.391   100369097.27743  24511159.813
         2.434           2.104          40.800          22.800



 109484227.689 8                  20834158.320    85312445.42047  20834165.363
     -1640.887       -1278.429          52.000          45.800    81757764.257 9
  20834166.988       -1225.153          56.300


 121143821.244 7                  23052924.164    94397900.39945  23052928.578
     -2707.105       -2109.254          45.800          35.900



 129230988.940 6                  24591849.781   100699521.45243  24591851.512
      3252.297        2534.311          37.300          21.700



 106540199.129 8                  20273901.227    83018262.52747  20273905.027
      1214.035         946.210          53.100          46.800



 120867483.137 7                  23000334.344    94182551.77045  23000341.625
      2381.613        1856.044          43.900          32.300    90258262.209 8
  23000344.004        1778.712          49.300


 120394076.152 6  22585621.672    22585622.328    93639866.041 6  22585628.680
      3973.479        3090.478          36.100          36.300



 102923076.929 7  19274187.449    19274189.430    80051284.983 8  19274191.840
      1026.646         798.503          46.900          49.500



 119305033.728 7                  22702982.391    92964938.84645  22702985.910
      1036.215         807.684          47.300          31.800



 100962198.048 8                  19212465.086
     -4775.238                          50.600                    75393904.929 8
  19212478.297       -3565.616          51.200    77360634.698 8  19212476.094
     -3658.631          51.300    76377227.922 9  19212477.297       -3612.129
        56.200
 132619037.462 8                  25236566.383
     -1409.656                          50.300                    99033730.255 8
  25236570.113       -1052.498          50.100   101617208.232 8  25236567.672
     -1079.955          50.600   100325472.847 9  25236568.977       -1066.220
        54.800
 142344226.336 6                  27087215.234
     -2954.461                          41.000                   106296115.326 7
  27087220.965       -2206.141          44.600   109069043.900 7  27087218.012
     -2263.686          44.100   107682568.227 8  27087219.316       -2234.921
        48.600
 144464807.883 6                  27490738.336
     -2578.852                          38.600                   107879568.458 5
  27490740.301       -1925.643          35.100   110693810.765 5  27490738.191
     -1975.871          35.100   109286696.720 6  27490739.957       -1950.756
        39.100
 215360622.365 6                  40981761.844
         3.375                          38.100                   160821193.384 7
  40981743.953           2.550          44.300


 207967680.266 7                  39574939.297
        -3.344                          42.200                   155300422.74416
  39574932.988           -.592          37.700


 105213506.020 8  19710036.105    19710037.188    81832726.445 8  19710039.332
      -709.737        -552.007          52.900          49.800



 109939603.323 7  20580926.414    20580927.516    85508582.523 7  20580931.645
     -3002.495       -2335.271          45.400          44.100



 122002077.977 7  22799005.996    22799007.203    94890512.145 6  22799010.199
     -4022.422       -3128.562          43.200          40.400



 118898146.744 7  22203392.449    22203393.078    92476339.577 7  22203395.488
     -2015.680       -1567.757          46.200          42.500



 125562690.533 7                  23893743.875    97840907.21845  23893745.246
     -3580.340       -2789.747          42.500          30.200



 120902354.738 6  22617285.578    22617286.789    94035168.384 6  22617290.375
      1622.830        1262.227          38.700          40.100



 131451708.333 5                  25014458.523   102430050.78343  25014465.227
      1740.258        1356.250          34.600          19.900    98162139.933 7
  25014467.703        1299.741          46.000


 112982969.044 8  21120975.504    21120976.164    87875645.080 6  21120981.867
      3716.580        2890.664          49.500          39.100



 209582530.712 6                  39882229.594
         4.508                          36.100                   156506428.456 6
  39882225.324           3.441          39.700


 211849538.460 5                  40312612.156
       -19.676                          33.600



 211580982.162 6                  40262511.656
        39.633                          36.500



 16  1  1 21 23 30.0000000  0 27G25G32G24G17G02G12G06R14R13G14E14E22
                                E30E19S28S36R22R12R21R04G19R05G03R23
                                S27S25S20
 120008157.640 7                  22836768.898    93512787.14645  22836775.543
      3258.688        2539.377          42.800          32.800    89616421.876 8
  22836776.488        2433.576          48.900


 128807089.182 6                  24511196.258   100369270.89643  24511201.871
       -17.289         -13.157          41.700          23.200



 109533708.639 8                  20843573.875    85351002.00747  20843580.785
     -1657.875       -1291.573          50.200          45.300    81794714.318 9
  20843582.586       -1237.753          56.400


 121225194.441 7                  23068408.813    94461308.08545  23068412.777
     -2717.867       -2117.638          45.400          35.700



 129133467.517 6                  24573292.383   100623530.76543  24573294.000
      3249.039        2531.815          37.700          20.900



 106504013.970 8                  20267015.594    82990066.29947  20267019.598
      1198.262         933.953          51.500          47.200



 120796255.633 7                  22986779.813    94127049.81845  22986786.906
      2366.793        1844.449          43.100          33.000    90205072.841 8
  22986789.105        1767.597          48.900


 120274942.414 6  22563273.473    22563274.836    93547206.457 6  22563279.941
      3968.917        3086.963          37.100          36.500



 102892590.147 7  19268477.742    19268478.898    80027573.029 8  19268482.148
      1006.494         782.834          46.800          49.400



 119274233.370 7                  22697120.883    92940938.56445  22697124.488
      1017.129         792.842          46.600          31.100



 101105885.111 8                  19239807.695
     -4803.871                          50.300                    75501203.710 8
  19239821.398       -3586.895          51.800    77470732.578 8  19239818.961
     -3680.457          51.700    76485926.253 9  19239820.242       -3633.677
        56.300
 132661518.013 8                  25244650.180
     -1422.492                          50.100                    99065452.738 8
  25244653.980       -1062.009          50.100   101649758.257 8  25244651.398
     -1089.717          50.400   100357609.106 9  25244652.773       -1075.866
        54.800
 142432898.437 7                  27104089.070
     -2957.168                          42.300                   106362331.498 7
  27104094.570       -2208.170          44.700   109136987.445 7  27104091.430
     -2265.781          43.900   107749648.077 8  27104092.945       -2236.972
        48.200
 144542282.199 6                  27505480.852
     -2586.250                          39.300                   107937422.653 6
  27505483.883       -1931.111          36.000   110753174.204 5  27505480.320
     -1981.488          33.100   109345305.542 6  27505482.840       -1956.300
        39.400
 215360528.954 6                  40981743.797
         3.020                          38.300                   160821123.848 7
  40981726.328           2.307          43.900


 207967776.407 6                  39574957.766
        -3.398                          40.900                   155300439.789 6
  39574951.105          -1.167          38.900


 105235222.992 8  19714104.402    19714105.484    81849617.429 8  19714107.797
      -737.158        -573.346          52.700          49.500



 110029909.506 7  20597832.297    20597832.930    85578820.640 7  20597837.160
     -3017.408       -2346.858          45.800          44.700



 122122919.264 7  22821587.934    22821589.375    94984499.792 6  22821591.996
     -4033.223       -3136.962          42.600          40.400



 118958988.163 7  22214754.066    22214755.047    92523660.690 7  22214756.797
     -2039.541       -1586.288          45.600          42.200



 125670225.274 7                  23914206.836    97924700.51544  23914209.301
     -3588.734       -2796.209          42.400          28.800



 120854060.051 6  22608251.012    22608251.516    93997605.872 6  22608256.043
      1597.613        1242.596          37.900          40.200



 131399741.397 5                  25004568.789   102389557.10443  25004576.395
      1724.199        1343.682          33.400          20.100    98123333.529 7
  25004578.637        1287.699          46.300


 112871723.224 8  21100179.184    21100179.492    87789120.551 6  21100185.492
      3700.380        2878.072          49.300          39.100



 209582392.820 5                  39882204.828
         4.453                          34.600                   156506325.277 6
  39882199.246           3.605          40.500


 211850122.285 5                  40312190.313
       -19.500                          34.000



 211579793.900 5                  40262293.172
        39.645                          35.800



 16  1  1 21 24  0.0000000  0 27G25G32G24G17G02G12G06R14R13G14E14E22
                                E30E19S28S36R22R12R21R04G19R05G03R23
                                S27S25S20
 119910505.573 7                  22818185.664    93436694.63545  22818192.531
      3251.480        2533.695          42.600          30.900    89543499.877 8
  22818194.063        2428.124          49.100


 128807900.551 6                  24511351.289   100369903.14943  24511356.992
       -36.961         -28.468          39.800          20.600



 109583695.550 8                  20853086.383    85389952.83847  20853092.926
     -1674.586       -1304.656          52.600          45.500    81832042.211 9
  20853094.668       -1250.303          56.200


 121306890.423 7                  23083955.234    94524967.28245  23083959.508
     -2728.523       -2125.982          45.100          35.700



 129036042.854 6                  24554752.531   100547615.44743  24554754.645
      3245.840        2529.302          39.200          22.300



 106468301.602 8                  20260219.664    82962238.47947  20260223.641
      1182.480         921.659          52.900          47.100



 120725476.861 7                  22973311.516    94071897.54545  22973318.488
      2351.816        1832.787          43.100          32.200    90152218.585 8
  22973320.395        1756.421          49.300


 120155946.418 6  22540950.852    22540950.688    93454654.066 6  22540957.887
      3964.292        3083.341          37.700          37.800



 102862708.803 7  19262882.000    19262883.273    80004331.987 8  19262886.605
       986.297         767.119          46.400          49.600



 119244005.679 7                  22691369.102    92917384.51945  22691372.977
       998.066         777.956          47.600          31.800



 101250422.078 8                  19267312.094
     -4831.898                          50.400                    75609137.152 8
  19267325.695       -3607.927          51.800    77581481.685 8  19267323.305
     -3702.044          52.000    76595267.525 9  19267324.574       -3654.987
        56.300
 132704381.020 8                  25252806.313
     -1435.219                          49.700                    99097460.829 8
  25252810.512       -1071.517          50.100   101682601.345 8  25252808.027
     -1099.468          50.500   100390034.693 9  25252809.336       -1085.493
        54.700
 142521651.903 7                  27120978.164
     -2959.820                          42.800                   106428608.419 7
  27120983.297       -2210.199          43.900   109204993.337 7  27120981.000
     -2267.864          44.000   107816789.483 8  27120982.199       -2239.032
        48.000
 144619976.113 6                  27520265.547
     -2593.516                          38.400                   107995440.874 5
  27520269.402       -1936.569          35.300   110812705.941 5  27520265.418
     -1987.084          35.400   109404080.513 6  27520267.578       -1961.819
        39.700
 215360435.290 6                  40981727.016
         2.891                          37.700                   160821053.780 7
  40981708.070           2.320          43.900


 207967879.431 6                  39574976.672
        -3.387                          41.400                   155300662.681 6
  39574970.129           -.729          38.300


 105257762.285 8  19718326.402    19718327.484    81867147.992 8  19718329.945
      -764.516        -594.626          53.300          49.500



 110120660.929 7  20614820.969    20614821.836    85649405.082 7  20614826.000
     -3032.143       -2358.347          45.500          44.700



 122244081.820 7  22844230.949    22844231.219    95078737.317 6  22844235.004
     -4043.849       -3145.217          43.400          40.800



 119020542.773 7  22226249.746    22226250.609    92571536.488 7  22226251.371
     -2063.277       -1604.764          46.300          42.500



 125778007.184 7                  23934716.992    98008686.40145  23934718.762
     -3596.816       -2802.606          42.600          30.000



 120806523.910 6  22599357.906    22599359.352    93960633.332 6  22599362.605
      1572.293        1222.886          38.900          40.700



 131348260.484 6                  24994773.016   102349442.12544  24994780.555
      1707.914        1331.093          39.000          24.700    98084889.995 7
  24994782.152        1275.629          46.700


 112760964.879 8  21079474.145    21079474.805    87702975.181 6  21079480.488
      3684.080        2865.397          49.900          39.900



 209582255.017 5                  39882177.984
         4.488                          35.300                   156506222.593 6
  39882173.223           3.321          40.300


 211850714.221 5                  40311752.344
       -19.852                          32.300



 211578603.625 5                  40262052.922
        39.684                          35.200



 16  1  1 21 24 30.0000000  0 27G25G32G24G17G02G12G06R14R13G14E14E22
                                E30E19S28S36R22R12R21R04G19R05G03R23
                                S27S25S20
 119813074.266 7                  22799645.328    93360774.13345  22799652.063
      3244.047        2527.919          43.300          32.600    89470742.729 8
  22799653.477        2422.591          49.400


 128809300.135 6                  24511617.930   100370993.78742  24511622.977
       -56.375         -43.744          40.200          16.300



 109634186.624 8                  20862694.445    85429296.53247  20862701.426
     -1691.371       -1317.739          51.600          45.600    81869746.580 9
  20862703.168       -1262.832          56.200


 121388906.389 7                  23099562.102    94588875.82545  23099566.047
     -2739.129       -2134.250          45.100          35.100



 128938717.734 6                  24536231.961   100471777.67243  24536234.168
      3242.484        2526.692          39.700          22.600



 106433062.702 8                  20253514.148    82934779.59647  20253517.859
      1166.773         909.374          53.000          47.000



 120655149.435 7                  22959928.227    94017096.98145  22959934.965
      2336.762        1821.037          43.400          32.500    90099701.375 8
  22959936.992        1745.162          49.000


 120037090.498 6  22518653.531    22518654.422    93362210.557 6  22518660.543
      3959.590        3079.705          38.300          37.700



 102833434.431 7  19257400.289    19257401.680    79981563.031 8  19257404.461
       966.051         751.372          46.600          49.900



 119214351.809 7                  22685726.406    92894277.60545  22685730.289
       978.969         763.057          47.000          31.200



 101395800.972 8                  19294977.109
     -4859.867                          50.700                    75717699.309 8
  19294990.336       -3628.779          51.600    77692875.905 8  19294988.086
     -3723.442          52.200    76705245.713 9  19294989.313       -3676.111
        56.200
 132747625.282 8                  25261035.703
     -1447.781                          50.400                    99129753.620 8
  25261039.570       -1080.977          50.200   101715736.559 8  25261037.086
     -1109.175          50.000   100422748.692 9  25261038.387       -1095.070
        54.700
 142610486.030 7                  27137882.438
     -2962.453                          43.000                   106494945.589 7
  27137888.363       -2212.177          42.700   109273061.034 7  27137885.504
     -2269.891          42.700   107883991.920 7  27137886.855       -2241.033
        47.200
 144697887.745 5                  27535090.750
     -2600.617                          35.500                   108053621.655 6
  27535095.445       -1941.945          37.600   110872404.445 5  27535090.242
     -1992.601          30.700   109463020.159 6  27535093.234       -1967.270
        38.900
 215360340.443 6                  40981708.375
         3.215                          38.700                   160820982.604 7
  40981689.898           2.238          43.800


 207967977.873 6                  39574997.203
        -3.258                          41.600                   155300680.806 6
  39574988.832           -.621          38.100


 105281122.359 8  19722703.738    19722704.234    81885316.938 8  19722707.047
      -791.860        -615.891          53.500          49.200



 110211856.344 7  20631892.570    20631894.023    85720334.815 7  20631897.758
     -3046.934       -2369.822          45.400          45.100



 122365561.721 7  22866932.066    22866933.156    95173221.694 6  22866936.809
     -4054.352       -3153.399          42.600          40.200



 119082807.874 7  22237876.188    22237876.227    92619964.922 6  22237878.965
     -2086.844       -1623.127          45.700          41.900



 125886034.323 6                  23955274.023    98092863.38444  23955275.754
     -3604.898       -2808.939          41.500          28.900



 120759748.833 6  22590607.988    22590609.078    93924252.766 6  22590612.340
      1546.935        1203.152          38.900          39.700



 131297267.581 6                  24985069.422   102309707.43344  24985076.230
      1691.625        1318.357          40.300          25.500    98046810.919 7
  24985078.824        1263.423          47.600


 112650697.922 8  21058860.777    21058862.258    87617211.995 6  21058867.277
      3667.686        2852.641          49.700          39.900



 209582116.110 5                  39882150.703
         4.500                          35.200                   156506119.030 6
  39882146.551           3.376          39.700


 211851306.317 5                  40311325.172
       -19.770                          33.700



 211577410.372 5                  40261819.031
        39.988                          34.700



 16  1  1 21 25  0.0000000  0 27G25G32G24G17G02G12G06R14R13G14E14E22
                                E30E19S28S36R22R12R21R04G19R05G03R23
                                S27S25S20
 119715865.249 7                  22781147.539    93285026.85145  22781153.820
      3236.555        2522.109          43.400          31.700    89398151.594 8
  22781155.586        2417.016          49.500


 128811288.169 6                  24511997.172   100372542.82342  24512001.273
       -76.113         -59.009          38.800          17.400



 109685181.183 8                  20872398.695    85469032.55047  20872405.445
     -1708.285       -1330.853          51.400          45.900    81907826.928 9
  20872407.188       -1275.402          56.100


 121471240.390 7                  23115229.648    94653032.18745  23115234.207
     -2749.816       -2142.529          44.500          34.800



 128841494.770 6                  24517731.852   100396019.51344  24517733.363
      3239.043        2523.964          40.800          24.000



 106398298.186 8                  20246898.539    82907690.36747  20246902.434
      1150.824         897.013          53.500          47.200



 120585276.037 7                  22946631.781    93962650.20745  22946639.156
      2321.363        1809.170          42.700          33.000    90047523.211 8
  22946641.301        1733.791          49.600


 119918377.222 6  22496383.145    22496384.508    93269877.993 6  22496390.348
      3954.755        3075.954          38.800          37.500



 102804768.881 7  19252031.520    19252033.148    79959267.593 8  19252036.125
       945.669         735.541          46.900          49.800



 119185272.995 7                  22680192.117    92871618.78545  22680196.348
       959.699         748.058          46.700          31.000



 101542013.735 8                  19322800.352
     -4887.664                          50.600                    75826884.168 8
  19322813.984       -3649.475          51.700    77804909.065 8  19322811.547
     -3744.677          51.900    76815854.725 9  19322812.828       -3697.076
        56.200
 132791249.716 8                  25269337.109
     -1460.492                          50.000                    99162330.307 8
  25269340.871       -1090.452          50.600   101749163.065 8  25269338.387
     -1118.895          50.300   100455750.297 9  25269339.785       -1104.677
        54.700
 142699400.238 7                  27154802.391
     -2965.250                          43.300                   106561342.566 6
  27154807.758       -2214.190          41.500   109341190.084 7  27154804.805
     -2271.960          42.100   107951254.930 7  27154806.461       -2243.072
        46.200
 144776015.381 5                  27549957.641
     -2608.152                          34.500                   108111963.676 6
  27549962.422       -1947.362          38.400   110932268.493 5  27549958.762
     -1998.158          34.000   109522123.190 6  27549961.039       -1972.756
        41.100
 215360245.224 6                  40981690.391
         3.082                          38.100                   160820911.568 7
  40981672.336           2.200          44.000


 207968078.498 6                  39575013.906
        -3.262                          40.500                   155300700.69216
  39575008.277           -.530          37.800


 105305301.780 8  19727232.148    19727233.586    81904123.154 8  19727235.680
      -819.151        -637.120          53.400          48.900



 110303493.652 7  20649048.320    20649048.836    85791608.278 7  20649053.125
     -3061.641       -2381.284          45.800          44.800



 122487355.353 7  22889691.762    22889691.914    95267950.073 6  22889695.926
     -4064.816       -3161.511          42.600          39.800



 119145780.016 7  22249636.199    22249637.648    92668943.226 7  22249638.957
     -2110.452       -1641.461          45.700          42.300



 125994303.559 7                  23975876.438    98177229.02544  23975878.789
     -3613.074       -2815.224          42.700          28.700



 120713737.054 6  22582001.289    22582002.500    93888465.818 6  22582005.203
      1521.381        1183.317          38.600          39.700



 131246764.719 6                  24975459.383   102270354.60943  24975465.992
      1675.211        1305.587          40.400          23.900    98009097.769 8
  24975468.527        1251.199          48.300


 112540925.155 8  21038340.270    21038341.047    87531833.178 6  21038346.613
      3651.063        2839.733          49.400          40.000



 209581975.914 5                  39882123.297
         4.516                          35.100                   156506014.190 6
  39882119.707           3.488          40.200


 211851898.250 5                  40310887.781
       -19.578                          33.000



 211576211.046 5                  40261608.594
        39.914                          35.700



 16  1  1 21 25 30.0000000  0 27G25G32G24G17G02G12G06R14R13G14E14E22
                                E30E19S28S36R22R12R21R04G19R05G03R23
                                S27S25S20
 119618880.080 7                  22762691.719    93209453.98345  22762697.820
      3229.129        2516.300          43.700          32.700    89325727.600 8
  22762700.172        2411.450          49.500


 128813864.409 5                  24512486.422   100374550.23342  24512491.594
       -95.910         -74.323          33.100          14.800



 109736677.989 8                  20882197.930    85509159.93747  20882204.238
     -1725.047       -1343.869          51.500          45.200    81946282.335 9
  20882206.039       -1287.870          56.000


 121553889.755 7                  23130957.703    94717434.29245  23130961.105
     -2760.320       -2150.683          45.400          34.200



 128744376.359 6                  24499250.633   100320342.79544  24499252.387
      3235.340        2521.242          40.800          26.100



 106364008.663 8                  20240373.430    82880971.25947  20240377.156
      1134.934         884.681          53.600          47.300



 120515859.223 7                  22933422.523    93908559.22545  22933429.332
      2306.215        1797.311          43.700          33.200    89995686.025 8
  22933431.473        1722.421          49.800


 119799809.044 6  22474140.383    22474140.453    93177658.356 6  22474146.777
      3949.942        3072.150          38.600          36.500



 102776713.481 7  19246777.871    19246779.500    79937446.721 8  19246782.332
       925.357         719.731          46.900          50.000



 119156770.094 7                  22674768.375    92849408.73545  22674773.063
       940.375         733.105          47.200          31.200



 101689052.266 8                  19350781.070
     -4915.031                          50.300                    75936685.674 8
  19350794.285       -3669.893          51.400    77917574.957 8  19350791.891
     -3765.628          51.700    76927088.425 9  19350793.238       -3717.764
        56.200
 132835253.037 8                  25277710.805
     -1473.152                          50.600                    99195189.931 8
  25277714.480       -1099.850          50.000   101782879.900 8  25277712.277
     -1128.543          50.100   100489038.526 9  25277713.480       -1114.202
        54.600
 142788393.860 7                  27171737.031
     -2967.945                          43.000                   106627798.884 6
  27171742.727       -2216.161          40.500   109409380.017 6  27171739.633
     -2273.973          41.400   108018578.055 7  27171741.137       -2245.063
        45.200
 144854356.794 5                  27564865.086
     -2615.078                          33.400                   108170465.316 6
  27564869.965       -1952.595          38.500   110992296.337 5  27564866.727
     -2003.537          35.900   109581387.932 6  27564869.598       -1978.063
        41.900
 215360150.591 6                  40981671.453
         3.211                          37.600                   160820841.618 7
  40981653.961           2.371          43.800


 207968175.386 6                  39575033.719
        -3.492                          41.600                   155300717.910 6
  39575026.520           -.657          38.000


 105330298.843 8  19731915.270    19731916.117    81923565.313 8  19731919.027
      -846.354        -658.270          53.500          49.800



 110395571.006 7  20666284.703    20666285.688    85863223.963 7  20666289.695
     -3076.280       -2392.654          44.800          44.300



 122609458.592 7  22912508.887    22912510.563    95362919.262 6  22912514.434
     -4075.076       -3169.500          42.200          40.400



 119209456.227 7  22261525.770    22261527.102    92718469.181 7  22261529.934
     -2133.790       -1659.616          44.500          42.400



 126102812.339 7                  23996525.820    98261781.29444  23996527.785
     -3621.016       -2821.361          43.100          28.200



 120668490.949 6  22573535.770    22573536.156    93853274.404 6  22573539.836
      1495.848        1163.481          38.100          38.600



 131196754.064 6                  24965943.141   102231385.28543  24965949.172
      1658.586        1292.793          38.900          21.800    97971752.221 7
  24965951.117        1238.932          46.600


 112431650.669 8  21017912.613    21017913.391    87446841.916 6  21017919.270
      3634.435        2826.778          50.000          40.400



 209581834.794 5                  39882097.281
         4.539                          35.000                   156505908.559 6
  39882093.035           3.555          40.900


 211833067.87115                  40310467.719
       -20.070                          32.900



 211575010.058 6                  40261374.281
        39.980                          36.300



 16  1  1 21 26  0.0000000  0 27G25G32G24G17G02G12G06R14R13G14E14E22
                                E30E19S28S36R22R12R21R04G19R05G03R23
                                S27S25S20
 119522120.445 7                  22744278.648    93134056.87245  22744285.262
      3221.574        2510.433          43.200          32.700    89253472.033 8
  22744287.203        2405.827          49.700


 128817028.732 5                  24513091.070
      -115.141                          35.900



 109788676.167 8                  20892092.914    85549677.99747  20892099.574
     -1741.605       -1356.888          50.900          45.000    81985112.148 9
  20892101.141       -1300.345          56.100


 121636853.659 7                  23146745.234    94782081.48945  23146748.965
     -2770.707       -2158.798          44.600          34.200



 128647365.218 6                  24480789.242   100244749.67543  24480791.180
      3231.949        2518.440          41.200          23.400



 106330195.033 8                  20233938.961    82854622.97647  20233942.871
      1119.137         872.318          52.100          47.300



 120446901.790 7                  22920300.070    93854826.20245  22920307.520
      2290.879        1785.342          44.300          33.500    89944191.893 8
  22920309.488        1710.948          49.900


 119681388.851 6  22451925.141    22451924.859    93085553.720 6  22451931.398
      3944.950        3068.315          37.900          36.600



 102749270.316 7  19241639.219    19241640.375    79916102.046 8  19241643.504
       904.956         703.837          46.700          49.600



 119128844.458 7                  22669454.625    92827648.49545  22669458.840
       921.195         718.118          46.900          30.900



 101836908.737 8                  19378917.273
     -4942.113                          50.100                    76047097.976 8
  19378930.355       -3690.148          51.100    78030867.581 8  19378928.055
     -3786.416          51.900    77038940.889 9  19378929.426       -3738.287
        56.100
 132879634.200 8                  25286156.297
     -1485.641                          50.300                    99228331.709 8
  25286159.770       -1109.226          50.500   101816886.253 8  25286157.660
     -1138.167          50.000   100522612.586 9  25286158.875       -1123.696
        54.600
 142877466.314 7                  27188687.438
     -2970.398                          43.000                   106694314.091 6
  27188692.496       -2218.079          40.400   109477630.390 6  27188689.684
     -2275.936          40.400   108085960.846 7  27188691.012       -2247.011
        44.700
 144932910.393 6                  27579815.547
     -2621.898                          39.000                   108229125.474 6
  27579817.723       -1957.844          37.200   111052486.682 5  27579815.848
     -2008.921          35.900   109640813.183 6  27579817.250       -1983.379
        41.400
 215360055.326 6                  40981653.844
         2.887                          38.000                   160820770.174 7
  40981636.328           2.306          44.100


 207968274.014 6                  39575052.500
        -3.367                          41.500                   155300935.192 6
  39575045.535           -.590          37.700


 105356112.282 8  19736751.590    19736752.320    81943642.436 8  19736755.012
      -873.524        -679.404          52.900          49.400



 110488086.663 7  20683604.500    20683605.133    85935180.591 7  20683609.082
     -3090.849       -2403.981          44.500          44.900



 122731867.838 7  22935383.551    22935384.875    95458126.443 6  22935389.063
     -4085.127       -3177.316          42.500          39.600



 119273833.417 7  22273549.680    22273549.953    92768540.290 7  22273552.617
     -2157.119       -1677.745          46.000          43.000



 126211557.814 7                  24017218.836    98346518.04344  24017220.855
     -3628.742       -2827.476          42.000          27.400



 120624012.512 6  22565215.008    22565216.336    93818680.115 6  22565219.965
      1470.256        1143.544          38.600          39.700



 131147237.703 6                  24956521.063   102192801.12443  24956526.816
      1642.395        1279.953          40.900          22.600    97934775.745 7
  24956527.945        1226.622          45.100


 112322878.452 8  20997578.441    20997579.453    87362241.323 6  20997585.105
      3617.667        2813.721          49.600          40.600



 209581693.373 5                  39882070.891
         5.340                          34.800                   156505802.906 6
  39882067.090           3.747          40.100


 211833663.133 5                  40310043.984
       -20.211                          32.500



 211573805.337 5                  40261140.422
        39.977                          34.700



 16  1  1 21 26 30.0000000  0 27G25G32G24G17G02G12G06R14R13G14E14E22
                                E30E19S28S36R22R12R21R04G19R05G03R23
                                S27S25S20
 119425587.472 7                  22725909.336    93058836.37145  22725915.672
      3213.898        2504.468          44.000          32.800    89181385.722 8
  22725917.617        2400.117          50.000


 128820780.776 6                  24513803.992
      -134.824                          36.500



 109841174.069 8                  20902083.133    85590585.44447  20902090.035
     -1758.250       -1369.851          52.100          45.200    82024315.125 9
  20902091.484       -1312.775          55.900


 121720129.028 7                  23162591.953    94846971.38245  23162595.887
     -2781.016       -2166.907          45.500          34.900



 128550463.512 6                  24462350.117   100169241.85744  24462352.039
      3228.152        2515.526          40.200          25.900



 106296857.322 8                  20227595.109    82828645.52947  20227599.230
      1103.262         859.921          53.200          47.300



 120378405.831 7                  22907265.930    93801452.76345  22907272.684
      2275.488        1773.281          43.900          33.900    89893042.348 8
  22907274.590        1699.393          49.800


 119563117.940 6  22429737.691    22429738.820    92993565.249 5  22429744.207
      3939.914        3064.361          38.500          35.600



 102722440.299 7  19236615.023    19236616.180    79895234.254 8  19236619.328
       884.414         687.882          46.600          50.300



 119101496.694 7                  22664250.211    92806338.55745  22664254.023
       901.926         703.040          47.500          31.300



 101985574.615 8                  19407207.227
     -4968.914                          50.400                    76158114.706 8
  19407220.543       -3710.241          51.800    78144780.392 8  19407218.105
     -3807.029          51.500    77151405.654 9  19407219.414       -3758.635
        56.000
 132924391.595 8                  25294673.172
     -1498.172                          50.100                    99261754.443 8
  25294676.949       -1118.617          49.900   101851180.879 8  25294674.555
     -1147.800          50.200   100556471.268 9  25294675.902       -1133.207
        54.500
 142966616.516 7                  27205651.773
     -2973.074                          42.700                   106760887.340 6
  27205657.078       -2220.063          40.200   109545940.332 6  27205654.500
     -2277.981          39.800   108153402.445 7  27205655.766       -2249.026
        44.300
 145011673.662 6                  27594803.469
     -2629.016                          39.300                   108287942.229 6
  27594807.066       -1963.091          41.000   111112837.869 5  27594803.879
     -2014.305          35.400   109700397.155 7  27594806.016       -1988.702
        43.600
 215359960.639 6                  40981634.953
         3.355                          37.700                   160820699.406 7
  40981618.563           2.331          44.000


 207968369.073 6                  39575070.109
        -3.133                          40.800                   155300950.264 6
  39575064.574           -.469          38.100


 105382739.701 8  19741739.309    19741740.273    81964352.654 8  19741742.836
      -900.707        -700.541          53.400          49.700



 110581038.428 7  20701004.688    20701006.023    86007476.385 7  20701009.711
     -3105.428       -2415.328          44.900          44.700



 122854578.856 7  22958315.816    22958317.258    95553568.296 6  22958320.766
     -4095.242       -3185.156          42.600          39.800



 119338908.061 7  22285701.340    22285702.906    92819153.911 7  22285704.664
     -2180.400       -1695.857          45.800          42.700



 126320537.182 6                  24037956.844    98431437.02644  24037959.465
     -3636.648       -2833.583          40.900          28.300



 120580303.880 6  22557039.191    22557040.281    93784684.516 6  22557043.922
      1444.571        1123.558          39.000          39.700



 131098217.193 6                  24947193.055   102154603.35743  24947198.449
      1625.543        1267.018          39.800          20.100    97898169.521 7
  24947200.746        1214.206          45.900


 112214611.189 8  20977338.699    20977339.945    87278033.451 6  20977345.406
      3600.719        2800.563          49.900          40.500



 209581551.232 5                  39882042.031
         4.637                          35.300                   156505696.640 6
  39882039.848           3.622          38.900


 211834265.995 5                  40309615.594
       -19.902                          33.700



 211572601.758 5                  40260917.828
        39.980                          34.700



 16  1  1 21 27  0.0000000  0 27G25G32G24G17G02G12G06R14R13G14E14E22
                                E30E19S28S36R22R12R21R04G19R05G03R23
                                S27S25S20
 119329282.834 7                  22707583.398    92983793.80045  22707589.441
      3206.316        2498.525          44.100          32.600    89109469.936 8
  22707591.680        2394.416          49.800


 128825120.713 6                  24514629.320
      -154.523                          38.700



 109894170.794 8                  20912167.984    85631881.59747  20912174.367
     -1774.891       -1382.801          51.500          45.200    82063890.602 9
  20912176.051       -1325.190          56.100


 121803713.624 7                  23178497.469    94912102.24345  23178501.031
     -2791.406       -2174.914          46.000          34.300



 128453674.162 6                  24443931.648   100093821.58144  24443933.750
      3224.355        2512.586          39.100          24.100



 106263996.419 8                  20221341.969    82803039.62847  20221345.551
      1087.379         847.522          53.400          47.500



 120310374.132 7                  22894319.195    93748441.09645  22894326.762
      2259.938        1761.188          43.500          33.100    89842239.500 8
  22894328.730        1687.803          49.300


 119444999.496 6  22407578.520    22407580.117    92901695.352 5  22407584.906
      3934.804        3060.380          38.800          35.600



 102696225.340 7  19231705.367    19231706.172    79874844.838 8  19231710.082
       863.893         671.914          46.700          49.700



 119074728.177 7                  22659156.633    92785479.96045  22659160.227
       882.574         687.984          47.800          31.600



 102135042.083 8                  19435649.961
     -4995.590                          50.300                    76269730.017 8
  19435663.078       -3730.103          51.300    78259307.410 8  19435661.016
     -3827.413          51.500    77264476.821 9  19435662.156       -3778.758
        55.800
 132969524.160 8                  25303261.750
     -1510.742                          50.400                    99295457.333 8
  25303265.453       -1127.953          49.700   101885762.974 8  25303263.016
     -1157.378          50.000   100590613.762 9  25303264.398       -1142.665
        54.500
 143055843.905 7                  27222631.430
     -2975.625                          42.300                   106827518.234 6
  27222636.383       -2221.964          40.700   109614309.420 6  27222633.285
     -2279.933          39.900   108220902.436 7  27222634.961       -2250.951
        44.400
 145090644.990 6                  27609830.836
     -2635.957                          38.500                   108346914.265 6
  27609834.832       -1968.242          40.500   111173348.339 6  27609833.145
     -2019.579          40.700   109760138.404 7  27609834.113       -1993.907
        44.900
 215359863.659 6                  40981616.281
         2.781                          38.700                   160820626.551 7
  40981599.492           2.174          43.900


 207968467.928 6                  39575089.422
        -3.383                          40.400                   155300968.897 6
  39575083.840           -.662          38.000


 105410179.743 8  19746879.258    19746880.578    81985694.924 8  19746882.910
      -927.743        -721.593          53.800          49.300



 110674424.606 7  20718485.742    20718487.195    86080110.061 7  20718491.395
     -3119.835       -2426.531          45.300          44.900



 122977587.637 7  22981303.352    22981305.383    95649241.798 6  22981307.699
     -4105.066       -3192.846          43.200          39.100



 119404677.101 7  22297983.352    22297983.039    92870307.645 6  22297986.430
     -2203.450       -1713.808          45.500          41.800



 126429747.554 7                  24058738.805    98516536.02944  24058740.543
     -3644.180       -2839.531          42.600          26.400



 120537366.990 6  22549007.434    22549008.055    93751289.135 6  22549011.602
      1418.765        1103.487          39.000          39.500



 131049694.763 6                  24937958.289   102116793.78743  24937965.098
      1609.020        1254.055          39.500          20.400    97861935.358 7
  24937966.754        1201.790          45.800


 112106852.523 8  20957194.809    20957195.703    87194221.171 6  20957201.152
      3583.674        2787.290          50.300          40.600



 209581408.455 5                  39882015.734
         4.227                          34.600                   156505590.342 6
  39882011.230           3.251          40.200


 211834858.512 5                  40309186.578
       -19.973                          33.800



 211571397.847 5                  40260699.672
        40.305                          34.200



 16  1  1 21 27 30.0000000  0 27G25G32G24G17G02G12G06R14R13G14E14E22
                                E30E19S28S36R22R12R21R04G19R05G03R23
                                S27S25S20
 119233208.269 7                  22689300.969    92908930.50445  22689307.238
      3198.664        2492.526          45.800          33.000    89037725.945 8
  22689308.477        2388.671          49.300


 128830048.100 6                  24515565.781   100387167.79142  24515571.121
      -173.941        -135.372          39.200          17.800



 109947664.854 8                  20922347.617    85673565.27747  20922354.512
     -1791.480       -1395.721          52.100          45.800    82103837.460 9
  20922355.961       -1337.563          55.900


 121887605.540 7                  23194461.609    94977472.55545  23194465.453
     -2801.523       -2182.867          46.800          34.300



 128356999.657 6                  24425534.648   100018490.85543  24425536.652
      3220.395        2509.508          37.100          22.600



 106231613.384 9                  20215179.766    82777806.09547  20215183.133
      1071.395         835.094          54.400          47.600



 120242809.407 7                  22881462.797    93695793.29045  22881469.875
      2244.262        1749.019          44.100          33.300    89791785.358 8
  22881471.492        1676.139          49.800


 119327036.154 6  22385448.211    22385448.516    92809946.078 5  22385455.129
      3929.578        3056.324          38.200          35.800



 102670626.968 7  19226911.504    19226913.367    79854935.004 8  19226915.934
       843.308         655.894          46.700          49.400



 119048539.882 8                  22654172.828    92765073.48445  22654177.039
       863.227         672.912          48.300          31.200



 102285303.308 8                  19464243.695
     -5021.875                          49.800                    76381938.071 8
  19464257.043       -3749.762          51.300    78374442.631 8  19464254.840
     -3847.578          51.400    77378148.457 9  19464256.008       -3798.668
        55.700
 133015030.777 8                  25311921.242
     -1523.184                          49.800                    99329439.547 8
  25311924.891       -1137.258          49.400   101920631.683 8  25311922.594
     -1166.927          49.900   100625039.222 9  25311923.961       -1152.090
        54.400
 143145148.015 6                  27239625.289
     -2978.281                          41.900                   106894206.417 6
  27239630.652       -2223.886          41.800   109682737.296 6  27239627.934
     -2281.898          39.500   108288460.462 7  27239629.094       -2252.888
        45.000
 145169822.537 6                  27624898.156
     -2642.781                          38.600                   108406040.371 6
  27624901.375       -1973.367          39.300   111234016.795 6  27624899.031
     -2024.846          39.800   109820035.685 7  27624900.453       -1999.099
        44.100
 215359768.961 6                  40981599.297
         3.098                          38.300                   160820556.470 7
  40981581.289           2.218          43.600


 207968569.299 6                  39575108.625
        -3.371                          41.100                   155301187.66216
  39575102.152           -.595          38.100


 105438430.986 8  19752172.109    19752173.430    82007668.107 8  19752175.500
      -954.785        -742.613          53.500          49.900



 110768243.338 7  20736049.961    20736050.711    86153080.183 7  20736054.824
     -3134.219       -2437.737          45.400          44.800



 123100890.985 7  23004345.871    23004346.375    95745144.408 6  23004350.328
     -4114.838       -3200.435          42.600          39.200



 119471137.794 7  22310394.875    22310395.148    92921999.268 6  22310396.898
     -2226.456       -1731.676          45.800          41.500



 126539186.544 7                  24079564.516    98601813.15444  24079567.082
     -3651.773       -2845.451          42.900          27.100



 120495204.090 6  22541119.992    22541121.555    93718495.783 6  22541124.063
      1392.888        1083.361          40.100          38.900



 131001672.283 6                  24928819.727   102079373.67743  24928826.758
      1592.465        1240.999          38.100          19.900    97826074.445 7
  24928828.531        1189.306          44.500


 111999606.198 8  20937146.301    20937146.961    87110807.347 6  20937152.988
      3566.556        2773.990          50.200          40.400



 209581265.147 5                  39881989.250
         4.551                          34.800                   156505483.466 6
  39881985.238           3.503          39.500


 211835459.168 5                  40308752.500
       -20.016                          33.900



 211570191.095 5                  40260461.938
        40.379                          34.400



 16  1  1 21 28  0.0000000  0 27G25G32G24G17G02G12G06R14R13G14E14E22
                                E30E19S28S36R22R12R21R04G19R05G03R23
                                S27S25S20
 119137364.903 7                  22671061.094    92834247.35445  22671068.492
      3190.898        2486.510          44.700          33.100    88966154.589 8
  22671070.141        2382.907          49.500


 128835562.210 6                  24516615.805   100391464.61543  24516619.914
      -193.602        -150.593          41.600          20.100



 110001655.290 8                  20932621.836    85715635.74147  20932628.281
     -1808.012       -1408.609          51.000          45.600    82144154.993 9
  20932629.730       -1349.916          55.800


 121971801.615 7                  23210483.617    95043079.89245  23210487.422
     -2811.586       -2190.739          46.000          34.700



 128260442.297 6                  24407160.688    99943251.40343  24407162.699
      3216.504        2506.481          37.600          22.600



 106199707.935 8                  20209108.258    82752944.70547  20209111.930
      1055.445         822.684          53.800          47.600



 120175713.740 7                  22868694.352    93643510.98345  22868701.766
      2228.613        1736.827          44.400          33.500    89741681.492 8
  22868703.852        1664.461          49.800


 119209229.595 6  22363348.313    22363349.086    92718318.744 5  22363355.305
      3924.327        3052.236          37.300          35.800



 102645646.160 7  19222233.023    19222234.531    79835505.493 8  19222237.637
       822.733         639.883          47.000          49.800



 119022932.443 8                  22649300.125    92745119.64445  22649304.602
       843.809         657.808          48.400          31.900



 102436349.775 8                  19492987.023
     -5047.953                          50.500                    76494732.513 8
  19493000.313       -3769.216          51.000    78490179.534 8  19492997.969
     -3867.544          50.700    77492414.130 9  19492999.215       -3818.377
        55.700
 133060909.818 8                  25320651.813
     -1535.586                          49.800                    99363699.874 8
  25320655.504       -1146.502          49.700   101955785.752 8  25320653.113
     -1176.411          50.100   100659746.421 9  25320654.461       -1161.455
        54.300
 143234527.646 6                  27256633.586
     -2980.508                          41.300                   106960950.971 7
  27256638.961       -2225.747          42.300   109751223.039 6  27256636.242
     -2283.809          40.900   108356075.611 7  27256637.688       -2254.781
        46.000
 145249203.869 6                  27640003.734
     -2649.437                          36.800                   108465318.672 6
  27640007.270       -1978.411          40.400   111294841.503 6  27640004.598
     -2030.021          39.600   109880087.192 7  27640006.344       -2004.211
        44.200
 215359672.920 6                  40981581.484
         3.207                          37.400                   160820484.965 7
  40981562.844           2.602          43.900


 207968667.988 6                  39575128.344
        -3.617                          41.400                   155301207.37816
  39575120.465          -1.713          38.700


 105467491.060 8  19757616.000    19757617.320    82030270.389 8  19757619.336
      -981.683        -763.543          53.000          49.100



 110862492.667 7  20753693.484    20753694.469    86226385.187 7  20753698.391
     -3148.549       -2448.870          44.900          44.200



 123224484.248 7  23027441.973    23027443.063    95841272.505 6  23027446.266
     -4124.417       -3207.879          42.300          39.300



 119538285.851 7  22322933.840    22322935.055    92974225.520 6  22322936.086
     -2249.348       -1749.477          45.900          41.600



 126648850.956 7                  24100433.531    98687265.93044  24100435.668
     -3659.129       -2851.233          43.600          26.600



 120453816.706 6  22533377.297    22533379.328    93686305.592 6  22533381.570
      1367.052        1063.265          41.300          39.500



 130954151.379 6                  24919777.891   102042344.32042  24919783.363
      1575.617        1227.966          38.900          17.800    97790588.094 6
  24919784.316        1176.806          41.100


 111892875.618 8  20917193.613    20917195.563    87027794.692 6  20917200.418
      3549.342        2760.585          50.400          41.000



 209581119.952 5                  39881959.703
         4.426                          34.600                   156505374.853 6
  39881956.887           3.533          40.200


 211836064.698 5                  40308326.453
       -20.293                          32.800



 211568983.167 5                  40260234.500
        40.410                          34.900



 16  1  1 21 28 30.0000000  0 27G25G32G24G17G02G12G06R14R13G14E14E22
                                E30E19S28S36R22R12R21R04G19R05G03R23
                                S27S25S20
 119041754.806 7                  22652867.938    92759745.99345  22652875.234
      3183.094        2480.443          45.500          32.800    88894757.450 8
  22652876.359        2377.092          49.500


 128841663.725 6                  24517777.469   100396218.94743  24517781.098
      -213.223        -165.851          40.800          20.400



 110056141.455 8                  20942990.172    85758092.49547  20942997.070
     -1824.520       -1421.414          52.600          45.500    82184842.719 9
  20942998.520       -1362.193          55.800


 122056301.079 7                  23226563.250    95108923.62845  23226567.016
     -2821.723       -2198.588          47.000          34.300



 128164005.197 6                  24388809.031    99868105.64043  24388811.043
      3212.742        2503.366          36.600          21.700



 106168281.758 9                  20203127.969    82728456.77147  20203131.848
      1039.523         810.258          54.500          47.600



 120109090.274 7                  22856016.555    93591596.62645  22856023.793
      2212.887        1724.532          45.500          33.600    89691930.234 8
  22856025.938        1652.682          49.900


 119091583.115 6  22341278.176    22341280.359    92626815.972 6  22341285.055
      3918.964        3048.058          37.600          36.400



 102621285.189 7  19217671.066    19217673.164    79816558.060 8  19217675.445
       802.041         623.800          46.700          49.500



 118997907.113 8                  22644538.180    92725619.38145  22644541.711
       824.449         642.712          48.500          31.400



 102588174.097 8                  19521878.289
     -5073.699                          50.400                    76608107.823 8
  19521891.242       -3788.460          50.700    78606512.458 8  19521888.758
     -3887.292          51.000    77607268.247 9  19521890.184       -3837.877
        55.500
 133107160.604 8                  25329453.078
     -1547.977                          50.000                    99398237.796 8
  25329456.602       -1155.720          49.300   101991224.666 8  25329454.445
     -1185.875          49.900   100694734.837 9  25329455.734       -1170.798
        54.200
 143323982.720 6                  27273656.180
     -2983.195                          40.400                   107027751.813 7
  27273661.586       -2227.602          43.000   109819766.534 6  27273659.336
     -2285.718          41.900   108423747.783 7  27273660.492       -2256.663
        46.800
 145328787.844 6                  27655147.359
     -2656.352                          37.200                   108524748.162 6
  27655151.750       -1983.416          40.400   111355821.349 6  27655149.449
     -2035.147          40.500   109940291.865 7  27655150.961       -2009.281
        45.000
 215359577.372 6                  40981563.125
         3.242                          37.000                   160820413.080 7
  40981544.859           2.377          43.900


 207968770.147 6                  39575145.547
        -3.363                          39.800                   155301228.992 6
  39575139.941          -1.160          38.700


 105497358.463 8  19763211.223    19763211.953    82053500.590 8  19763214.516
     -1008.567        -784.436          52.900          49.300



 110957170.796 7  20771417.203    20771418.773    86300023.720 7  20771422.539
     -3162.836       -2460.002          44.700          44.600



 123348364.315 7  23050592.113    23050593.789    95937623.599 6  23050596.223
     -4133.930       -3215.250          43.300          38.400



 119606119.181 7  22335600.910    22335602.477    93026984.756 6  22335603.988
     -2272.110       -1767.192          45.600          41.300



 126758738.670 7                  24121344.219    98772892.70844  24121346.512
     -3666.672       -2856.984          43.000          27.100



 120413207.754 6  22525780.809    22525781.078    93654720.855 6  22525784.395
      1341.067        1043.045          40.600          39.400



 130907134.558 6                  24910830.758   102005707.88542  24910836.863
      1558.629        1214.862          38.400          16.900    97755478.145 6
  24910837.816        1164.240          41.300


 111786664.743 8  20897338.855    20897339.867    86945186.238 6  20897345.457
      3531.957        2747.083          50.300          40.600



 209580974.145 5                  39881934.172
         4.781                          34.600                   156505265.902 6
  39881929.762           3.866          40.900


 211836670.342 5                  40307889.594
       -20.008                          32.400



 211567770.400 5                  40259994.063
        40.203                          34.900



 16  1  1 21 29  0.0000000  0 27G25G32G24G17G02G12G06R14R13G14E14E22
                                E30E19S28S36R22R12R21R04G19R05G03R23
                                S27S25S20
 118946379.049 7                  22634718.133    92685427.23245  22634725.082
      3175.219        2474.334          44.600          33.700    88823535.297 8
  22634726.262        2371.236          49.800


 128848351.538 6                  24519049.195   100401430.26243  24519053.504
      -232.805        -181.096          41.400          20.100



 110111121.003 8                  20953452.148    85800933.70147  20953458.906
     -1840.949       -1434.244          51.100          45.100    82225898.869 9
  20953460.355       -1374.483          55.800


 122141100.895 7                  23242700.070    95175001.40445  23242704.324
     -2831.691       -2206.348          46.800          34.700



 128067690.608 6                  24370480.758    99793055.34243  24370482.777
      3208.293        2500.104          38.400          22.800



 106137334.421 8                  20197239.023    82704341.96247  20197242.973
      1023.531         797.779          53.800          47.600



 120042940.927 7                  22843428.242    93540051.69045  22843435.883
      2196.988        1712.192          44.000          33.000    89642533.027 8
  22843437.906        1640.848          49.900


 118974098.577 6  22319239.160    22319240.172    92535439.105 6  22319244.969
      3913.469        3043.803          38.900          37.000



 102597545.184 7  19213226.086    19213227.125    79798093.609 8  19213230.324
       781.292         607.680          46.400          49.800



 118973464.488 8                  22639887.086    92706573.17345  22639890.426
       804.996         627.531          48.500          32.100



 102740767.833 8                  19550915.898
     -5099.254                          50.100                    76722057.699 8
  19550929.125       -3807.543          50.900    78723434.936 8  19550926.781
     -3906.864          50.700    77722704.427 9  19550928.066       -3857.204
        55.400
 133153781.332 8                  25338324.445
     -1560.258                          49.600                    99433051.985 8
  25338328.059       -1164.944          49.400   102026947.045 8  25338325.996
     -1195.334          49.800   100730003.122 9  25338327.195       -1180.139
        54.200
 143413512.113 6                  27290693.648
     -2985.668                          40.200                   107094608.168 7
  27290698.336       -2229.468          42.800   109888366.962 7  27290695.945
     -2287.633          42.700   108491476.171 7  27290697.254       -2258.551
        47.300
 145408571.725 6                  27670330.313
     -2662.863                          39.400                   108584326.993 6
  27670333.844       -1988.375          39.800   111416954.419 6  27670332.250
     -2040.244          41.300   110000647.815 7  27670333.270       -2014.313
        44.800
 215359480.997 6                  40981544.547
         3.367                          37.400                   160820341.502 7
  40981526.773           2.432          43.900


 207968867.131 6                  39575165.094
        -3.152                          40.900                   155301247.012 6
  39575158.246           -.602          37.800


 105528031.103 8  19768956.984    19768958.305    82077357.078 8  19768960.473
     -1035.410        -805.310          53.200          49.600



 111052275.729 7  20789221.242    20789222.695    86373994.213 7  20789226.328
     -3177.071       -2471.042          44.300          44.600



 123472526.601 7  23073794.168    23073794.672    96034194.296 6  23073799.004
     -4143.281       -3222.554          42.600          39.900



 119674633.576 7  22348395.316    22348396.063    93080273.762 6  22348398.691
     -2294.805       -1784.821          45.000          40.900



 126868846.294 7                  24142297.063    98858690.84944  24142298.961
     -3673.980       -2862.691          43.400          27.800



 120373378.320 6  22518329.730    22518330.703    93623742.386 6  22518333.633
      1315.047        1022.806          40.200          39.000



 130860623.226 6                  24901979.219   101969465.36442  24901985.477
      1541.805        1201.660          38.100          17.400    97720745.666 6
  24901986.547        1151.635          40.800


 111680976.365 8  20877581.668    20877582.680    86862984.172 6  20877588.277
      3514.480        2733.472          50.000          40.700



 209580828.912 5                  39881906.656
         4.910                          34.800                   156505157.633 6
  39881902.105           3.676          40.800


 211818469.193 5                  40307453.453
       -20.262                          31.900



 211566556.042 5                  40259772.375
        40.191                          34.800



 16  1  1 21 29 30.0000000  0 27G25G32G24G17G02G12G06R14R13G14E14E22
                                E30E19S28S36R22R12R21R04G19R05G03R23
                                S27S25S20
 118851239.590 7                  22616614.523    92611292.59245  22616621.047
      3167.383        2468.188          45.500          33.900    88752489.600 8
  22616622.520        2365.345          50.100


 128855625.887 6                  24520433.344   100407098.54243  24520438.484
      -252.129        -196.285          41.300          22.500



 110166593.805 8                  20964008.070    85844159.25647  20964015.168
     -1857.203       -1447.012          51.200          45.100    82267323.368 9
  20964016.676       -1386.723          56.000


 122226199.391 7                  23258893.875    95241311.92245  23258898.098
     -2841.562       -2214.063          46.600          34.200



 127971501.312 6                  24352177.117    99718102.66443  24352178.512
      3204.379        2496.836          38.500          23.300



 106106867.739 8                  20191441.164    82680601.69147  20191445.090
      1007.660         785.347          53.600          47.500



 119977268.739 7                  22830931.633    93488878.61245  22830938.816
      2181.195        1699.791          44.900          34.100    89593492.162 8
  22830940.664        1628.970          50.000


 118856778.766 6  22297229.934    22297231.180    92444190.360 6  22297236.406
      3908.000        3039.562          39.900          37.100



 102574427.778 7  19208896.152    19208897.781    79780113.400 8  19208900.809
       760.559         591.557          47.000          49.400



 118949606.216 8                  22635346.805    92687982.31745  22635350.633
       785.551         612.372          48.100          32.000



 102894123.376 8                  19580098.391
     -5124.344                          50.100                    76836576.448 8
  19580111.555       -3826.354          51.000    78840941.136 8  19580109.117
     -3926.173          50.600    77838716.899 9  19580110.535       -3876.264
        55.400
 133200771.177 8                  25347266.445
     -1572.383                          50.100                    99468141.802 8
  25347270.250       -1174.071          49.300   102062952.245 8  25347268.000
     -1204.696          50.100   100765550.628 9  25347269.223       -1189.381
        54.200
 143503115.380 6                  27307744.297
     -2987.891                          41.500                   107161519.726 7
  27307748.941       -2231.232          42.700   109957024.021 7  27307747.395
     -2289.434          42.900   108559260.475 7  27307748.234       -2260.330
        47.300
 145488554.063 6                  27685550.781
     -2669.293                          38.400                   108644054.113 6
  27685552.805       -1993.238          36.400   111478239.561 6  27685552.055
     -2045.233          39.600   110061153.939 7  27685552.742       -2019.229
        42.400
 215359386.094 6                  40981526.938
         3.375                          37.900                   160820270.709 7
  40981508.578           2.420          43.300


 207968961.405 6                  39575183.734
        -3.109                          40.800                   155301465.193 6
  39575176.441           -.519          38.100


 105559507.489 8  19774853.941    19774854.906    82101838.722 8  19774857.320
     -1062.114        -826.086          53.000          49.500



 111147805.754 7  20807104.531    20807106.219    86448295.340 7  20807109.785
     -3191.109       -2481.982          44.500          44.200



 123596968.204 7  23097050.199    23097051.758    96130982.140 6  23097054.047
     -4152.496       -3229.705          43.000          38.900



 119743825.959 7  22361316.563    22361316.719    93134090.054 6  22361320.090
     -2317.291       -1802.357          45.100          41.500



 126979171.726 7                  24163291.313    98944658.70744  24163293.324
     -3680.992       -2868.276          43.000          25.000



 120334330.874 6  22511025.641    22511026.852    93593372.174 6  22511029.348
      1288.993        1002.541          40.800          39.400



 130814619.617 6                  24893223.703   101933618.37342  24893231.035
      1525.020        1188.538          37.200          17.800    97686392.353 6
  24893233.746        1139.033          39.900


 111575814.504 8  20857922.840    20857922.914    86781191.614 6  20857929.473
      3496.910        2719.827          50.000          40.900



 209580681.987 5                  39881877.656
         4.996                          35.400                   156505047.800 6
  39881874.184           3.692          40.200


 211819074.476 5                  40307025.750
       -20.121                          33.900



 211565338.123 5                  40259541.000
        40.629                          35.000



                            4  1
other post-header comments skipped                          COMMENT
 16  1  1 21 30  0.0000000  0 27G25G32G24G17G02G12G06R14R13G14E14E22
                                E30E19S28S36R22R12R21R04G19R05G03R23
                                S27S25S20
 118756337.491 7                  22598555.086    92537342.91145  22598561.703
      3159.414                          44.300          34.300    88681621.147 8
  22598563.352                          50.300


 128863485.897 6                  24521929.203   100413223.20642  24521932.945
      -271.664                          40.000          16.300



 110222557.669 8                  20974657.773    85887767.46047  20974664.324
     -1873.562                          51.300          45.300    82309114.564 9
  20974665.715                          55.700


 122311593.469 7                  23275143.844    95307852.76245  23275147.934
     -2851.336                          47.200          32.700



 127875439.602 6                  24333896.461    99643249.37543  24333898.352
      3199.867                          38.900          21.700



 106076881.266 8                  20185734.984    82657235.60747  20185738.762
       991.645                          53.500          47.600



 119912075.649 7                  22818525.430    93438078.83745  22818532.965
      2165.176                          44.600          34.200    89544809.056 8
  22818534.699                          49.900


 118739625.880 6  22275252.590    22275253.836    92353071.458 6  22275259.219
                                        39.900          37.700



 102551934.117 7  19204683.922    19204685.430    79762618.332 8  19204688.395
                                        46.700          49.600



 118926332.513 7                  22630917.695    92669846.96845  22630921.336
       766.098                          47.900          31.900



 103048232.293 8                  19609424.258
     -5149.363                          50.100                    76951657.784 8
  19609437.625                          50.700    78959024.594 8  19609435.141
                        50.600    77955299.296 9  19609436.594
        55.400
 133248128.431 8                  25356278.563
     -1584.684                          50.000                    99503505.982 8
  25356281.797                          49.800   102099238.972 8  25356279.594
                        50.800   100801376.084 9  25356280.934
        54.200
 143592791.541 7                  27324809.453
     -2990.332                          42.000                   107228485.740 7
  27324813.691                          42.600   110025736.971 7  27324811.816
                        43.100   108627099.961 7  27324813.027
        47.100
 145568732.556 6                  27700807.648
     -2675.984                          37.900                   108703927.639 6
  27700811.203                          38.900   111539675.025 6  27700809.047
                        37.600   110121808.438 7  27700810.363
        42.500
 215359289.308 6                  40981508.188
         3.086                          37.000                   160820197.577 7
  40981489.852                          44.100


 207969058.607 6                  39575203.031
        -3.289                          40.400                   155301483.382 6
  39575195.902                          38.800


 105591785.209 8  19780900.676    19780901.758    82126943.614 8  19780904.289
                                        52.900          49.700



 111243758.365 7  20825067.523    20825068.039    86522925.128 7  20825072.707
                                        45.000          44.600



 123721684.362 7  23120355.996    23120357.438    96227983.649 6  23120360.000
                                        42.000          38.500



 119813692.690 7  22374364.582    22374365.445    93188430.875 6  22374367.195
                                        44.900          40.300



 127089712.085 7                  24184326.688    99030794.02644  24184328.492
     -3688.102                          43.900          26.900



 120296066.975 6  22503866.996    22503867.617    93563611.356 6  22503871.215
                                        39.200          40.300



 130769125.266 6                  24884568.281   101898168.13843  24884574.316
      1508.043                          41.000          20.600    97652419.216 6
  24884576.266                          40.600


 111471182.337 8  20838362.621    20838363.047    86699811.053 6  20838369.031
                                        50.300          40.900



 209580533.696 5                  39881850.141
         5.109                          34.800                   156504936.955 6
  39881846.176                          39.900


 211812713.03215                  40306591.281
       -20.211                          33.700



 211564117.183 5                  40259310.188
        40.727                          35.500



 16  1  1 21 30 30.0000000  0 26G25G32G24G17G02G12G06R14R13G14E14E22
                                E30E19S28S36R22R12R21R04G19R05G03R23
                                S27S20
 118661674.508 7                  22580541.117    92463579.55345  22580548.281
      3151.355        2455.752          45.100          34.100    88610931.267 8
  22580549.637        2353.430          50.100


 128871931.415 6                  24523536.250   100419804.22642  24523539.539
      -291.297        -226.749          38.300          17.800



 110279011.648 8                  20985400.844    85931757.57647  20985407.750
     -1889.957       -1472.459          51.400          44.900    82351271.753 9
  20985409.258       -1411.104          55.900


 122397282.032 7                  23291449.648    95374623.06845  23291453.934
     -2861.102       -2229.332          46.200          33.900



 127779508.108 6                  24315641.648    99568497.55443  24315642.359
      3195.449        2490.077          39.200          22.200



 106047375.930 9                  20180120.430    82634244.43847  20180124.352
       975.449         760.337          54.900          47.800



 119847364.319 7                  22806212.141    93387654.44945  22806219.133
      2149.043        1674.768          44.400          34.200    89496485.691 8
  22806220.863        1604.986          49.700


 118622643.053 6  22253308.141    22253307.508    92262084.806 6  22253313.797
      3896.629        3030.747          40.000          37.700



 102530065.683 7  19200588.633    19200590.023    79745609.544 8  19200593.129
       718.860         559.129          46.400          49.800



 118903644.525 8                  22626601.211    92652167.99945  22626603.355
       746.484         581.953          48.400          32.100



 103203086.909 8                  19638892.000
     -5174.156                          49.600                    77067295.971 8
  19638905.445       -3863.512          50.900    79077679.430 8  19638902.820
     -3964.300          51.000    78072445.807 9  19638904.305       -3913.904
        55.300
 133295851.998 8                  25365359.641
     -1596.887                          49.800                    99539143.710 8
  25365363.512       -1192.304          49.400   102135806.380 8  25365361.168
     -1223.411          50.000   100837478.650 9  25365362.379       -1207.856
        54.200
 143682539.972 7                  27341887.734
     -2992.773                          43.200                   107295505.712 7
  27341892.629       -2234.849          43.600   110094505.298 7  27341890.238
     -2293.147          43.400   108694994.107 8  27341891.570       -2263.990
        48.000
 145649105.272 6                  27716103.008
     -2682.258                          41.800                   108763946.242 6
  27716106.078       -2002.928          39.400   111601259.359 6  27716103.777
     -2055.184          38.800   110182609.906 7  27716104.949       -2029.053
        43.600
 215359192.349 6                  40981489.453
         3.379                          37.200                   160820125.734 7
  40981471.469           2.639          44.300


 207969157.990 6                  39575222.063
        -3.137                          40.200                   155301502.67916
  39575213.949            .262          38.600


 105624862.585 8  19787097.148    19787098.586    82152670.466 8  19787100.660
     -1115.434        -867.554          53.000          49.500



 111340132.270 7  20843108.703    20843109.219    86597882.614 7  20843113.926
     -3219.231       -2503.857          44.600          44.000



 123846671.669 7  23143712.574    23143713.430    96325195.983 6  23143717.570
     -4170.581       -3243.788          42.200          40.700



 119884230.806 7  22387536.469    22387536.742    93243293.797 6  22387539.406
     -2362.034       -1837.139          44.600          40.000



 127200464.626 7                  24205401.961    99117094.71044  24205404.074
     -3695.266       -2879.314          42.500          24.800



 120258588.747 6  22496856.473    22496856.859    93534461.656 6  22496860.137
      1236.614         961.790          38.900          40.200



 130724142.089 6                  24876007.758   101863116.32943  24876014.250
      1490.910        1161.978          41.700          22.900    97618827.841 6
  24876015.672        1113.565          41.400


 111367083.097 8  20818903.426    20818903.969    86618844.966 6  20818909.664
      3461.366        2692.185          50.400          41.100



 209580385.017 5                  39881822.422
         5.121                          34.900                   156504826.001 6
  39881817.379           3.651          39.400


 211562895.238 5                  40259072.906
        40.887                          35.700



 16  1  1 21 31  0.0000000  0 27G25G32G24G17G02G12G06R14R13G14E14E22
                                E30E19S28S36R22R12R21R04G19R05G03R23
                                S27S25S20
 118567252.233 7                  22562573.328    92390003.74745  22562579.707
      3143.285        2449.493          44.900          33.700    88540421.133 8
  22562581.355        2347.425          50.600


 128880962.239 6                  24525255.477   100426841.22043  24525260.953
      -310.848        -241.908          39.800          20.900



 110335954.582 8                  20996236.492    85976128.69047  20996243.434
     -1906.371       -1485.196          51.600          45.000    82393794.077 9
  20996244.883       -1423.317          56.100


 122483261.887 7                  23307811.586    95441620.35445  23307815.328
     -2870.992       -2236.893          45.800          33.900



 127683709.753 6                  24297412.586    99493849.45843  24297412.664
      3190.848        2486.576          40.000          22.600



 106018352.406 9                  20174597.328    82611628.69548  20174601.016
       959.293         747.802          54.500          48.100



 119783137.336 7                  22793989.766    93337607.47145  22793996.848
      2132.777        1662.128          45.200          33.900    89448524.014 8
  22793998.754        1592.870          50.000


 118505832.286 6  22231393.883    22231393.836    92171231.985 6  22231399.867
      3890.839        3026.211          38.700          36.700



 102508823.977 7  19196610.820    19196612.211    79729088.228 8  19196615.168
       697.913         542.817          46.800          49.800



 118881542.987 8                  22622394.906    92634946.02945  22622398.355
       726.742         566.679          48.000          31.800



 103358679.271 8                  19668500.430
     -5198.715                          49.200                    77183485.067 8
  19668513.844       -3881.796          50.500    79196899.549 8  19668511.359
     -3983.059          50.300    78190150.414 9  19668512.707       -3932.425
        55.300
 133343940.675 8                  25374510.438
     -1609.145                          49.300                    99575054.085 8
  25374514.414       -1201.405          50.000   102172653.547 8  25374511.930
     -1232.751          49.900   100873857.426 9  25374513.340       -1217.081
        54.000
 143772360.007 7                  27358980.258
     -2995.375                          44.400                   107362579.093 7
  27358985.016       -2236.660          43.000   110163328.425 7  27358982.625
     -2295.008          44.600   108762942.369 8  27358983.969       -2265.837
        48.000
 145729670.416 6                  27731432.664
     -2688.645                          37.400                   108824108.534 6
  27731437.375       -2007.710          38.600   111662991.102 6  27731435.125
     -2060.084          39.700   110243556.919 7  27731436.215       -2033.893
        43.100
 215359096.186 6                  40981472.594
         3.227                          37.000                   160820053.574 7
  40981452.992           2.416          43.800


 207969257.914 6                  39575239.797
        -3.586                          39.700                   155301523.090 6
  39575232.082           -.799          37.600


 105658737.630 8  19793442.871    19793443.953    82179017.722 8  19793446.043
     -1142.017        -888.222          53.200          49.000



 111436925.219 7  20861228.617    20861228.898    86673165.989 7  20861233.742
     -3233.208       -2514.700          44.500          44.300



 123971926.472 7  23167119.816    23167120.438    96422616.306 6  23167123.504
     -4179.444       -3250.669          42.900          38.200



 119955436.529 7  22400833.918    22400835.133    93298676.073 6  22400835.922
     -2384.260       -1854.420          45.200          39.900



 127311426.607 7                  24226517.383    99203558.58144  24226519.031
     -3702.324       -2884.766          43.000          25.400



 120221897.908 6  22489992.461    22489993.789    93505924.299 6  22489996.516
      1210.296         941.345          38.800          40.400



 130679672.066 7                  24867546.266   101828464.41944  24867552.102
      1473.621        1148.604          44.300          26.600    97585619.789 7
  24867554.402        1100.735          45.200


 111263520.514 8  20799542.512    20799543.992    86538296.296 6  20799549.313
      3443.367        2678.177          50.300          40.200



 209580236.667 5                  39881792.797
         4.949                          34.200                   156504715.411 6
  39881790.051           3.456          39.500


 211808790.185 5                  40305730.109
       -20.578                          32.900



 211561667.533 5                  40258839.813
        40.863                          34.000



 16  1  1 21 31 30.0000000  0 27G25G32G24G17G02G12G06R14R13G14E14E22
                                E30E19S28S36R22R12R21R04G19R05G03R23
                                S27S25S20
 118473072.030 7                  22544651.656    92316616.57845  22544658.730
      3135.305        2443.187          44.100          34.500    88470091.758 8
  22544659.910        2341.387          50.700


 128890577.598 6                  24527085.766   100434333.69142  24527089.520
      -330.371        -257.107          36.000          14.800



 110393385.329 8                  21007165.445    86020879.91947  21007172.277
     -1922.598       -1497.827          49.900          45.100    82436680.673 9
  21007173.898       -1435.419          55.700


 122569531.002 7                  23324227.453    95508843.04545  23324231.559
     -2880.387       -2244.373          44.400          33.500



 127588046.570 6                  24279207.766    99419306.73143  24279208.695
      3186.367        2483.026          40.000          22.600



 105989810.898 9                  20169166.109    82589388.56047  20169169.973
       943.285         735.275          54.900          47.800



 119719396.883 7                  22781860.039    93287939.61245  22781867.395
      2116.527        1649.451          44.300          33.800    89400925.660 8
  22781869.480        1580.721          50.000


 118389196.166 6  22209512.773    22209513.313    92080514.992 6  22209519.480
      3885.004        3021.687          38.800          38.000



 102488210.360 7  19192750.336    19192751.844    79713055.397 8  19192754.688
       676.974         526.555          46.500          49.500



 118860028.747 8                  22618300.711    92618181.68945  22618304.387
       707.395         551.438          48.300          32.100



 103515001.245 8                  19698247.438
     -5222.832                          49.400                    77300219.012 8
  19698260.656       -3899.857          51.300    79316678.723 8  19698258.313
     -4001.588          51.100    78308406.975 9  19698259.656       -3950.719
        55.300
 133392392.923 8                  25383730.711
     -1621.180                          49.900                    99611235.963 8
  25383734.617       -1210.436          49.400   102209779.296 8  25383732.320
     -1242.011          49.600   100910511.242 9  25383733.453       -1226.231
        54.000
 143862250.719 7                  27376085.898
     -2997.586                          44.300                   107429705.275 7
  27376090.141       -2238.398          42.700   110232205.733 7  27376088.594
     -2296.787          44.200   108830944.109 7  27376089.453       -2267.589
        47.600
 145810425.938 6                  27746800.930
     -2694.961                          38.500                   108884412.932 5
  27746803.273       -2012.428          35.300   111724868.593 6  27746801.676
     -2064.917          37.000   110304647.871 6  27746802.688       -2038.677
        40.800
 215358999.965 6                  40981452.250
         3.125                          36.600                   160819981.907 7
  40981435.063           2.365          43.400


 207969355.773 6                  39575258.938
        -3.266                          41.200                   155301748.451 6
  39575251.012          -1.055          38.200


 105693408.019 8  19799938.457    19799939.188    82205983.591 8  19799941.625
     -1168.481        -908.833          53.500          49.300



 111534135.007 7  20879426.625    20879427.844    86748773.602 7  20879432.129
     -3247.020       -2525.459          44.800          44.600



 124097444.539 7  23190575.879    23190576.852    96520241.542 6  23190580.203
     -4188.137       -3257.440          43.900          40.100



 120027306.599 7  22414255.281    22414254.734    93354574.998 6  22414258.336
     -2406.303       -1871.591          44.300          40.700



 127422595.177 6                  24247671.563    99290183.42344  24247674.293
     -3709.090       -2890.072          41.000          25.700



 120185995.946 6  22483275.984    22483278.250    93478000.599 6  22483279.637
      1183.988         920.890          39.400          39.300



 130635716.728 7                  24859181.813   101794213.57944  24859187.191
      1456.500        1135.208          42.300          25.300    97552796.023 7
  24859189.902        1087.907          45.000


 111160497.994 8  20780283.262    20780284.273    86458167.692 6  20780289.887
      3425.367        2664.161          50.800          40.900



 209580085.960 5                  39881763.656
         4.875                          34.300                   156504602.505 6
  39881761.637           3.770          40.100


 211806470.074 5                  40305284.094
       -20.273                          32.500



 211560438.879 5                  40258607.203
        41.172                          34.400



